[{"id":1,"name":"Zooxo","address":"88 Messerschmidt Plaza","city":"Sasayama","country":"Japan","lat":"35.06667","lng":"135.21667","revenue":"$761.50","notes":"Curabitur in libero ut massa volutpat convallis. Morbi odio odio, elementum eu, interdum eu, tincidunt in, leo. Maecenas pulvinar lobortis est.\n\nPhasellus sit amet erat. Nulla tempus. Vivamus in felis eu sapien cursus vestibulum.\n\nProin eu mi. Nulla ac enim. In tempor, turpis nec euismod scelerisque, quam turpis adipiscing lorem, vitae mattis nibh ligula nec sem."},
{"id":2,"name":"Avaveo","address":"6372 Pine View Park","city":"Suohe","country":"China","lat":"30.52151","lng":"113.8974","revenue":"$409.97","notes":"Aenean lectus. Pellentesque eget nunc. Donec quis orci eget orci vehicula condimentum.\n\nCurabitur in libero ut massa volutpat convallis. Morbi odio odio, elementum eu, interdum eu, tincidunt in, leo. Maecenas pulvinar lobortis est.\n\nPhasellus sit amet erat. Nulla tempus. Vivamus in felis eu sapien cursus vestibulum."},
{"id":3,"name":"Zoombeat","address":"2 Dahle Center","city":"Argir","country":"Faroe Islands","lat":"61.99595","lng":"-6.77154","revenue":"$716.93","notes":"Pellentesque at nulla. Suspendisse potenti. Cras in purus eu magna vulputate luctus.\n\nCum sociis natoque penatibus et magnis dis parturient montes, nascetur ridiculus mus. Vivamus vestibulum sagittis sapien. Cum sociis natoque penatibus et magnis dis parturient montes, nascetur ridiculus mus."},
{"id":4,"name":"Cogilith","address":"701 Granby Street","city":"Hexi","country":"China","lat":"28.45667","lng":"107.43361","revenue":"$995.29","notes":"Proin leo odio, porttitor id, consequat in, consequat ut, nulla. Sed accumsan felis. Ut at dolor quis odio consequat varius."},
{"id":5,"name":"Tagtune","address":"6731 Arizona Way","city":"União da Vitória","country":"Brazil","lat":"-26.23","lng":"-51.08639"},
{"id":6,"name":"Bluezoom","address":"960 Almo Street","city":"Al Wāsiţah","country":"Egypt","lat":"29.33778","lng":"31.20556","revenue":"$881.42","notes":"In quis justo. Maecenas rhoncus aliquam lacus. Morbi quis tortor id nulla ultrices aliquet.\n\nMaecenas leo odio, condimentum id, luctus nec, molestie sed, justo. Pellentesque viverra pede ac diam. Cras pellentesque volutpat dui.\n\nMaecenas tristique, est et tempus semper, est quam pharetra magna, ac consequat metus sapien ut nunc. Vestibulum ante ipsum primis in faucibus orci luctus et ultrices posuere cubilia Curae; Mauris viverra diam vitae quam. Suspendisse potenti."},
{"id":7,"name":"Mymm","address":"4 Eastwood Hill","city":"Krajan","country":"Indonesia","lat":"-8.1959","lng":"114.2985","revenue":"$29.18","notes":"Fusce consequat. Nulla nisl. Nunc nisl."},
{"id":8,"name":"Quaxo","address":"650 Mosinee Hill","city":"Wageningen","country":"Netherlands","lat":"51.97","lng":"5.6667","revenue":"$399.29","notes":"Aliquam quis turpis eget elit sodales scelerisque. Mauris sit amet eros. Suspendisse accumsan tortor quis turpis.\n\nSed ante. Vivamus tortor. Duis mattis egestas metus."},
{"id":9,"name":"Meezzy","address":"08 Becker Alley","city":"Xiaoyang","country":"China","lat":"27.18772","lng":"119.45095","revenue":"$918.35","notes":"Morbi porttitor lorem id ligula. Suspendisse ornare consequat lectus. In est risus, auctor sed, tristique in, tempus sit amet, sem.\n\nFusce consequat. Nulla nisl. Nunc nisl.\n\nDuis bibendum, felis sed interdum venenatis, turpis enim blandit mi, in porttitor pede justo eu massa. Donec dapibus. Duis at velit eu est congue elementum."},
{"id":10,"name":"Aimbo","address":"750 Larry Park","city":"Matanza","country":"Colombia","lat":"7.32233","lng":"-73.01516","revenue":"$506.93","notes":"Suspendisse potenti. In eleifend quam a odio. In hac habitasse platea dictumst.\n\nMaecenas ut massa quis augue luctus tincidunt. Nulla mollis molestie lorem. Quisque ut erat."},
{"id":11,"name":"Fivechat","address":"9 Eastlawn Street","city":"Terjan","country":"Indonesia","lat":"-6.6945","lng":"111.5641"},
{"id":12,"name":"Trudeo","address":"2 Melody Drive","city":"Cayungnan","country":"Philippines","lat":"16.1332","lng":"119.8375"},
{"id":13,"name":"Babbleopia","address":"3 Superior Trail","city":"Slavonice","country":"Czech Republic","lat":"48.99753","lng":"15.35154","revenue":"$874.17","notes":"In quis justo. Maecenas rhoncus aliquam lacus. Morbi quis tortor id nulla ultrices aliquet."},
{"id":14,"name":"Avavee","address":"555 American Hill","city":"Shanhou","country":"China","lat":"31.87483","lng":"118.15596","revenue":"$158.12","notes":"Nullam sit amet turpis elementum ligula vehicula consequat. Morbi a ipsum. Integer a nibh."},
{"id":15,"name":"Photobean","address":"01428 Village Green Alley","city":"Uherské Hradiště","country":"Czech Republic","lat":"49.06975","lng":"17.45969","revenue":"$747.85","notes":"Praesent blandit. Nam nulla. Integer pede justo, lacinia eget, tincidunt eget, tempus vel, pede.\n\nMorbi porttitor lorem id ligula. Suspendisse ornare consequat lectus. In est risus, auctor sed, tristique in, tempus sit amet, sem.\n\nFusce consequat. Nulla nisl. Nunc nisl."},
{"id":16,"name":"Ailane","address":"337 Dunning Crossing","city":"Killarney","country":"Canada","lat":"49.18332","lng":"-99.66364","revenue":"$568.74","notes":"Mauris enim leo, rhoncus sed, vestibulum sit amet, cursus id, turpis. Integer aliquet, massa id lobortis convallis, tortor risus dapibus augue, vel accumsan tellus nisi eu orci. Mauris lacinia sapien quis libero.\n\nNullam sit amet turpis elementum ligula vehicula consequat. Morbi a ipsum. Integer a nibh.\n\nIn quis justo. Maecenas rhoncus aliquam lacus. Morbi quis tortor id nulla ultrices aliquet."},
{"id":17,"name":"InnoZ","address":"3434 Northland Trail","city":"Ankazoabo","country":"Madagascar","lat":"-22.28333","lng":"44.51667","revenue":"$178.12","notes":"Fusce consequat. Nulla nisl. Nunc nisl."},
{"id":18,"name":"Roodel","address":"16 Scofield Way","city":"Salerno","country":"Italy","lat":"40.6755","lng":"14.7933","revenue":"$826.13","notes":"Vestibulum ac est lacinia nisi venenatis tristique. Fusce congue, diam id ornare imperdiet, sapien urna pretium nisl, ut volutpat sapien arcu sed augue. Aliquam erat volutpat.\n\nIn congue. Etiam justo. Etiam pretium iaculis justo."},
{"id":19,"name":"Riffpedia","address":"86 Spohn Center","city":"Kovdor","country":"Russia","lat":"67.56616","lng":"30.47576","revenue":"$60.37","notes":"Quisque porta volutpat erat. Quisque erat eros, viverra eget, congue eget, semper rutrum, nulla. Nunc purus.\n\nPhasellus in felis. Donec semper sapien a libero. Nam dui.\n\nProin leo odio, porttitor id, consequat in, consequat ut, nulla. Sed accumsan felis. Ut at dolor quis odio consequat varius."},
{"id":20,"name":"Talane","address":"6 Brentwood Avenue","city":"Kungsbacka","country":"Sweden","lat":"57.4872","lng":"12.0761","revenue":"$601.63","notes":"Donec diam neque, vestibulum eget, vulputate ut, ultrices vel, augue. Vestibulum ante ipsum primis in faucibus orci luctus et ultrices posuere cubilia Curae; Donec pharetra, magna vestibulum aliquet ultrices, erat tortor sollicitudin mi, sit amet lobortis sapien sapien non mi. Integer ac neque.\n\nDuis bibendum. Morbi non quam nec dui luctus rutrum. Nulla tellus."},
{"id":21,"name":"Skidoo","address":"8 Lighthouse Bay Terrace","city":"Mtwara","country":"Tanzania","lat":"-10.26667","lng":"40.18333","revenue":"$103.52","notes":"Cras non velit nec nisi vulputate nonummy. Maecenas tincidunt lacus at velit. Vivamus vel nulla eget eros elementum pellentesque.\n\nQuisque porta volutpat erat. Quisque erat eros, viverra eget, congue eget, semper rutrum, nulla. Nunc purus."},
{"id":22,"name":"Bluezoom","address":"30 Sutherland Point","city":"Bočar","country":"Serbia","lat":"45.76994","lng":"20.2839","revenue":"$267.11","notes":"Lorem ipsum dolor sit amet, consectetuer adipiscing elit. Proin risus. Praesent lectus.\n\nVestibulum quam sapien, varius ut, blandit non, interdum in, ante. Vestibulum ante ipsum primis in faucibus orci luctus et ultrices posuere cubilia Curae; Duis faucibus accumsan odio. Curabitur convallis."},
{"id":23,"name":"Leenti","address":"7 Hintze Avenue","city":"Castellon De La Plana/Castello De La Pla","country":"Spain","lat":"40.2108","lng":"0.0272","revenue":"$661.76","notes":"Duis consequat dui nec nisi volutpat eleifend. Donec ut dolor. Morbi vel lectus in quam fringilla rhoncus.\n\nMauris enim leo, rhoncus sed, vestibulum sit amet, cursus id, turpis. Integer aliquet, massa id lobortis convallis, tortor risus dapibus augue, vel accumsan tellus nisi eu orci. Mauris lacinia sapien quis libero."},
{"id":24,"name":"Mita","address":"335 Butternut Way","city":"Agboville","country":"Ivory Coast","lat":"5.92801","lng":"-4.21319","revenue":"$675.60","notes":"Maecenas tristique, est et tempus semper, est quam pharetra magna, ac consequat metus sapien ut nunc. Vestibulum ante ipsum primis in faucibus orci luctus et ultrices posuere cubilia Curae; Mauris viverra diam vitae quam. Suspendisse potenti.\n\nNullam porttitor lacus at turpis. Donec posuere metus vitae ipsum. Aliquam non mauris."},
{"id":25,"name":"Muxo","address":"2169 Morrow Place","city":"Siuna","country":"Nicaragua","lat":"13.73321","lng":"-84.77725","revenue":"$264.83","notes":"Quisque porta volutpat erat. Quisque erat eros, viverra eget, congue eget, semper rutrum, nulla. Nunc purus."},
{"id":26,"name":"Bubbletube","address":"7989 Bowman Park","city":"Los Dos Caminos","country":"Venezuela","lat":"10.49389","lng":"-66.82863","revenue":"$448.17","notes":"Duis bibendum, felis sed interdum venenatis, turpis enim blandit mi, in porttitor pede justo eu massa. Donec dapibus. Duis at velit eu est congue elementum.\n\nIn hac habitasse platea dictumst. Morbi vestibulum, velit id pretium iaculis, diam erat fermentum justo, nec condimentum neque sapien placerat ante. Nulla justo.\n\nAliquam quis turpis eget elit sodales scelerisque. Mauris sit amet eros. Suspendisse accumsan tortor quis turpis."},
{"id":27,"name":"Skaboo","address":"406 Mallory Street","city":"General Alvear","country":"Argentina","lat":"-36.02078","lng":"-60.0145","revenue":"$572.75","notes":"Nulla ut erat id mauris vulputate elementum. Nullam varius. Nulla facilisi.\n\nCras non velit nec nisi vulputate nonummy. Maecenas tincidunt lacus at velit. Vivamus vel nulla eget eros elementum pellentesque.\n\nQuisque porta volutpat erat. Quisque erat eros, viverra eget, congue eget, semper rutrum, nulla. Nunc purus."},
{"id":28,"name":"Cogibox","address":"2 Claremont Trail","city":"Tây Hồ","country":"Vietnam","lat":"21.06895","lng":"105.81053","revenue":"$929.28","notes":"In hac habitasse platea dictumst. Etiam faucibus cursus urna. Ut tellus.\n\nNulla ut erat id mauris vulputate elementum. Nullam varius. Nulla facilisi."},
{"id":29,"name":"Zoovu","address":"129 Gale Alley","city":"Hanchang","country":"China","lat":"28.7","lng":"113.58333","revenue":"$289.10","notes":"Duis aliquam convallis nunc. Proin at turpis a pede posuere nonummy. Integer non velit.\n\nDonec diam neque, vestibulum eget, vulputate ut, ultrices vel, augue. Vestibulum ante ipsum primis in faucibus orci luctus et ultrices posuere cubilia Curae; Donec pharetra, magna vestibulum aliquet ultrices, erat tortor sollicitudin mi, sit amet lobortis sapien sapien non mi. Integer ac neque.\n\nDuis bibendum. Morbi non quam nec dui luctus rutrum. Nulla tellus."},
{"id":30,"name":"Bubbletube","address":"264 Fairfield Lane","city":"Aktogay","country":"Kazakhstan","lat":"48.16667","lng":"75.3","revenue":"$767.98","notes":"Integer tincidunt ante vel ipsum. Praesent blandit lacinia erat. Vestibulum sed magna at nunc commodo placerat.\n\nPraesent blandit. Nam nulla. Integer pede justo, lacinia eget, tincidunt eget, tempus vel, pede.\n\nMorbi porttitor lorem id ligula. Suspendisse ornare consequat lectus. In est risus, auctor sed, tristique in, tempus sit amet, sem."},
{"id":31,"name":"Zoovu","address":"41 Loeprich Road","city":"Nice","country":"France","lat":"43.7031","lng":"7.2661","revenue":"$330.13","notes":"Proin leo odio, porttitor id, consequat in, consequat ut, nulla. Sed accumsan felis. Ut at dolor quis odio consequat varius.\n\nInteger ac leo. Pellentesque ultrices mattis odio. Donec vitae nisi.\n\nNam ultrices, libero non mattis pulvinar, nulla pede ullamcorper augue, a suscipit nulla elit ac nulla. Sed vel enim sit amet nunc viverra dapibus. Nulla suscipit ligula in lacus."},
{"id":32,"name":"Flashspan","address":"831 Hanson Lane","city":"Fontainebleau","country":"France","lat":"48.4","lng":"2.7","revenue":"$660.85","notes":"In hac habitasse platea dictumst. Morbi vestibulum, velit id pretium iaculis, diam erat fermentum justo, nec condimentum neque sapien placerat ante. Nulla justo."},
{"id":33,"name":"Zoomzone","address":"419 Monument Road","city":"Serra D'El Rei","country":"Portugal","lat":"39.3213","lng":"-9.3143","revenue":"$50.42","notes":"In quis justo. Maecenas rhoncus aliquam lacus. Morbi quis tortor id nulla ultrices aliquet.\n\nMaecenas leo odio, condimentum id, luctus nec, molestie sed, justo. Pellentesque viverra pede ac diam. Cras pellentesque volutpat dui.\n\nMaecenas tristique, est et tempus semper, est quam pharetra magna, ac consequat metus sapien ut nunc. Vestibulum ante ipsum primis in faucibus orci luctus et ultrices posuere cubilia Curae; Mauris viverra diam vitae quam. Suspendisse potenti."},
{"id":34,"name":"Skyba","address":"1 Mesta Hill","city":"Żabia Wola","country":"Poland","lat":"52.03169","lng":"20.69112","revenue":"$936.66","notes":"Nullam porttitor lacus at turpis. Donec posuere metus vitae ipsum. Aliquam non mauris.\n\nMorbi non lectus. Aliquam sit amet diam in magna bibendum imperdiet. Nullam orci pede, venenatis non, sodales sed, tincidunt eu, felis.\n\nFusce posuere felis sed lacus. Morbi sem mauris, laoreet ut, rhoncus aliquet, pulvinar sed, nisl. Nunc rhoncus dui vel sem."},
{"id":35,"name":"Jamia","address":"17 Surrey Parkway","city":"Gjinoc","country":"Kosovo","lat":"42.31833","lng":"20.81861","revenue":"$272.32","notes":"Phasellus sit amet erat. Nulla tempus. Vivamus in felis eu sapien cursus vestibulum.\n\nProin eu mi. Nulla ac enim. In tempor, turpis nec euismod scelerisque, quam turpis adipiscing lorem, vitae mattis nibh ligula nec sem."},
{"id":36,"name":"Topicshots","address":"2259 Veith Junction","city":"Yongning","country":"China","lat":"28.52449","lng":"114.36576","revenue":"$409.85","notes":"Fusce posuere felis sed lacus. Morbi sem mauris, laoreet ut, rhoncus aliquet, pulvinar sed, nisl. Nunc rhoncus dui vel sem."},
{"id":37,"name":"Rhycero","address":"3903 Anderson Lane","city":"Arlington","country":"United States","lat":"38.8808","lng":"-77.113"},
{"id":38,"name":"Realfire","address":"9624 Eastwood Plaza","city":"Wenjiao","country":"China","lat":"19.66992","lng":"110.90674"},
{"id":39,"name":"Jaxbean","address":"21556 Ludington Parkway","city":"Esperanza","country":"Philippines","lat":"7.49167","lng":"125.72806","revenue":"$133.05","notes":"Cras non velit nec nisi vulputate nonummy. Maecenas tincidunt lacus at velit. Vivamus vel nulla eget eros elementum pellentesque."},
{"id":40,"name":"Mita","address":"5 Hooker Place","city":"Stara Błotnica","country":"Poland","lat":"51.54676","lng":"20.97479","revenue":"$931.39","notes":"Aenean lectus. Pellentesque eget nunc. Donec quis orci eget orci vehicula condimentum.\n\nCurabitur in libero ut massa volutpat convallis. Morbi odio odio, elementum eu, interdum eu, tincidunt in, leo. Maecenas pulvinar lobortis est."},
{"id":41,"name":"Tanoodle","address":"327 Ryan Park","city":"Mont-de-Marsan","country":"France","lat":"43.8902","lng":"-0.4971","revenue":"$276.05","notes":"Quisque porta volutpat erat. Quisque erat eros, viverra eget, congue eget, semper rutrum, nulla. Nunc purus."},
{"id":42,"name":"Dynabox","address":"697 Stephen Alley","city":"Bualan","country":"Philippines","lat":"7.75","lng":"124.26667"},
{"id":43,"name":"Browsebug","address":"6 Brentwood Avenue","city":"Cerro Azul","country":"Argentina","lat":"-27.6331","lng":"-55.4962","revenue":"$474.35","notes":"In hac habitasse platea dictumst. Etiam faucibus cursus urna. Ut tellus.\n\nNulla ut erat id mauris vulputate elementum. Nullam varius. Nulla facilisi.\n\nCras non velit nec nisi vulputate nonummy. Maecenas tincidunt lacus at velit. Vivamus vel nulla eget eros elementum pellentesque."},
{"id":44,"name":"Pixope","address":"723 Carberry Point","city":"Paghmān","country":"Afghanistan","lat":"34.58787","lng":"68.95091","revenue":"$289.44","notes":"Maecenas tristique, est et tempus semper, est quam pharetra magna, ac consequat metus sapien ut nunc. Vestibulum ante ipsum primis in faucibus orci luctus et ultrices posuere cubilia Curae; Mauris viverra diam vitae quam. Suspendisse potenti.\n\nNullam porttitor lacus at turpis. Donec posuere metus vitae ipsum. Aliquam non mauris.\n\nMorbi non lectus. Aliquam sit amet diam in magna bibendum imperdiet. Nullam orci pede, venenatis non, sodales sed, tincidunt eu, felis."},
{"id":45,"name":"Dabvine","address":"90 Talisman Plaza","city":"Pokhvistnevo","country":"Russia","lat":"53.65237","lng":"52.12738","revenue":"$278.26","notes":"Vestibulum quam sapien, varius ut, blandit non, interdum in, ante. Vestibulum ante ipsum primis in faucibus orci luctus et ultrices posuere cubilia Curae; Duis faucibus accumsan odio. Curabitur convallis.\n\nDuis consequat dui nec nisi volutpat eleifend. Donec ut dolor. Morbi vel lectus in quam fringilla rhoncus.\n\nMauris enim leo, rhoncus sed, vestibulum sit amet, cursus id, turpis. Integer aliquet, massa id lobortis convallis, tortor risus dapibus augue, vel accumsan tellus nisi eu orci. Mauris lacinia sapien quis libero."},
{"id":46,"name":"Reallinks","address":"2 Onsgard Drive","city":"Morávka","country":"Czech Republic","lat":"49.59607","lng":"18.52471","revenue":"$555.93","notes":"Nullam sit amet turpis elementum ligula vehicula consequat. Morbi a ipsum. Integer a nibh.\n\nIn quis justo. Maecenas rhoncus aliquam lacus. Morbi quis tortor id nulla ultrices aliquet.\n\nMaecenas leo odio, condimentum id, luctus nec, molestie sed, justo. Pellentesque viverra pede ac diam. Cras pellentesque volutpat dui."},
{"id":47,"name":"Trilia","address":"3 Mariners Cove Circle","city":"Zapolyarnyy","country":"Russia","lat":"69.41541","lng":"30.81355","revenue":"$141.12","notes":"Aenean lectus. Pellentesque eget nunc. Donec quis orci eget orci vehicula condimentum.\n\nCurabitur in libero ut massa volutpat convallis. Morbi odio odio, elementum eu, interdum eu, tincidunt in, leo. Maecenas pulvinar lobortis est."},
{"id":48,"name":"Devpoint","address":"58766 Fisk Hill","city":"Energetik","country":"Russia","lat":"51.7445","lng":"58.7934","revenue":"$809.51","notes":"Vestibulum quam sapien, varius ut, blandit non, interdum in, ante. Vestibulum ante ipsum primis in faucibus orci luctus et ultrices posuere cubilia Curae; Duis faucibus accumsan odio. Curabitur convallis.\n\nDuis consequat dui nec nisi volutpat eleifend. Donec ut dolor. Morbi vel lectus in quam fringilla rhoncus."},
{"id":49,"name":"Thoughtbridge","address":"4158 Riverside Alley","city":"Encrucijada","country":"Cuba","lat":"22.61611","lng":"-79.86458"},
{"id":50,"name":"Feedmix","address":"959 Oakridge Court","city":"Lamalewo","country":"Indonesia","lat":"-8.4498","lng":"122.9628","revenue":"$270.54","notes":"Suspendisse potenti. In eleifend quam a odio. In hac habitasse platea dictumst.\n\nMaecenas ut massa quis augue luctus tincidunt. Nulla mollis molestie lorem. Quisque ut erat.\n\nCurabitur gravida nisi at nibh. In hac habitasse platea dictumst. Aliquam augue quam, sollicitudin vitae, consectetuer eget, rutrum at, lorem."},
{"id":51,"name":"Blogtags","address":"01937 Everett Way","city":"Concord","country":"Canada","lat":"43.80011","lng":"-79.48291"},
{"id":52,"name":"Quire","address":"2 Superior Crossing","city":"Krajan","country":"Indonesia","lat":"-8.2916","lng":"114.2416","revenue":"$635.36","notes":"Aenean fermentum. Donec ut mauris eget massa tempor convallis. Nulla neque libero, convallis eget, eleifend luctus, ultricies eu, nibh.\n\nQuisque id justo sit amet sapien dignissim vestibulum. Vestibulum ante ipsum primis in faucibus orci luctus et ultrices posuere cubilia Curae; Nulla dapibus dolor vel est. Donec odio justo, sollicitudin ut, suscipit a, feugiat et, eros.\n\nVestibulum ac est lacinia nisi venenatis tristique. Fusce congue, diam id ornare imperdiet, sapien urna pretium nisl, ut volutpat sapien arcu sed augue. Aliquam erat volutpat."},
{"id":53,"name":"Thoughtblab","address":"72743 Schurz Trail","city":"Nova Venécia","country":"Brazil","lat":"-18.71056","lng":"-40.40056","revenue":"$377.66","notes":"Phasellus in felis. Donec semper sapien a libero. Nam dui."},
{"id":54,"name":"Browsetype","address":"77 Hallows Junction","city":"Kashihara","country":"Japan","lat":"34.58333","lng":"135.61667"},
{"id":55,"name":"Eazzy","address":"950 Hudson Court","city":"Tabaquite","country":"Trinidad and Tobago","lat":"10.38824","lng":"-61.29704","revenue":"$51.30","notes":"Sed sagittis. Nam congue, risus semper porta volutpat, quam pede lobortis ligula, sit amet eleifend pede libero quis orci. Nullam molestie nibh in lectus.\n\nPellentesque at nulla. Suspendisse potenti. Cras in purus eu magna vulputate luctus."},
{"id":56,"name":"Twitterbeat","address":"37 Algoma Trail","city":"Massakory","country":"Chad","lat":"12.996","lng":"15.72927","revenue":"$477.10","notes":"Maecenas ut massa quis augue luctus tincidunt. Nulla mollis molestie lorem. Quisque ut erat.\n\nCurabitur gravida nisi at nibh. In hac habitasse platea dictumst. Aliquam augue quam, sollicitudin vitae, consectetuer eget, rutrum at, lorem."},
{"id":57,"name":"Yozio","address":"585 8th Court","city":"Zhongcun","country":"China","lat":"22.97611","lng":"113.31306","revenue":"$943.78","notes":"Phasellus in felis. Donec semper sapien a libero. Nam dui.\n\nProin leo odio, porttitor id, consequat in, consequat ut, nulla. Sed accumsan felis. Ut at dolor quis odio consequat varius."},
{"id":58,"name":"Linktype","address":"76549 Oak Valley Park","city":"Oefatu","country":"Indonesia","lat":"-9.85413","lng":"124.41511","revenue":"$548.88","notes":"Duis consequat dui nec nisi volutpat eleifend. Donec ut dolor. Morbi vel lectus in quam fringilla rhoncus.\n\nMauris enim leo, rhoncus sed, vestibulum sit amet, cursus id, turpis. Integer aliquet, massa id lobortis convallis, tortor risus dapibus augue, vel accumsan tellus nisi eu orci. Mauris lacinia sapien quis libero."},
{"id":59,"name":"Plajo","address":"02 Hayes Trail","city":"Leiguan","country":"China","lat":"32.34624","lng":"118.61596","revenue":"$311.58","notes":"Maecenas leo odio, condimentum id, luctus nec, molestie sed, justo. Pellentesque viverra pede ac diam. Cras pellentesque volutpat dui.\n\nMaecenas tristique, est et tempus semper, est quam pharetra magna, ac consequat metus sapien ut nunc. Vestibulum ante ipsum primis in faucibus orci luctus et ultrices posuere cubilia Curae; Mauris viverra diam vitae quam. Suspendisse potenti.\n\nNullam porttitor lacus at turpis. Donec posuere metus vitae ipsum. Aliquam non mauris."},
{"id":60,"name":"Eadel","address":"2 Vernon Junction","city":"Lugulu","country":"Kenya","lat":"0.39361","lng":"34.30528","revenue":"$387.70","notes":"Cras non velit nec nisi vulputate nonummy. Maecenas tincidunt lacus at velit. Vivamus vel nulla eget eros elementum pellentesque.\n\nQuisque porta volutpat erat. Quisque erat eros, viverra eget, congue eget, semper rutrum, nulla. Nunc purus.\n\nPhasellus in felis. Donec semper sapien a libero. Nam dui."},
{"id":61,"name":"Snaptags","address":"51 Montana Junction","city":"Huangjinjing","country":"China","lat":"27.59","lng":"110.89806"},
{"id":62,"name":"Jayo","address":"62 Shopko Junction","city":"Oslo","country":"Norway","lat":"59.9127","lng":"10.7461","revenue":"$431.81","notes":"In quis justo. Maecenas rhoncus aliquam lacus. Morbi quis tortor id nulla ultrices aliquet.\n\nMaecenas leo odio, condimentum id, luctus nec, molestie sed, justo. Pellentesque viverra pede ac diam. Cras pellentesque volutpat dui.\n\nMaecenas tristique, est et tempus semper, est quam pharetra magna, ac consequat metus sapien ut nunc. Vestibulum ante ipsum primis in faucibus orci luctus et ultrices posuere cubilia Curae; Mauris viverra diam vitae quam. Suspendisse potenti."},
{"id":63,"name":"Aimbo","address":"40 Corben Way","city":"Shejiang","country":"China","lat":"24.04038","lng":"115.97942","revenue":"$7.51","notes":"Morbi porttitor lorem id ligula. Suspendisse ornare consequat lectus. In est risus, auctor sed, tristique in, tempus sit amet, sem.\n\nFusce consequat. Nulla nisl. Nunc nisl.\n\nDuis bibendum, felis sed interdum venenatis, turpis enim blandit mi, in porttitor pede justo eu massa. Donec dapibus. Duis at velit eu est congue elementum."},
{"id":64,"name":"Mydeo","address":"25 Shelley Way","city":"Armanāz","country":"Syria","lat":"36.08305","lng":"36.50309","revenue":"$791.67","notes":"Mauris enim leo, rhoncus sed, vestibulum sit amet, cursus id, turpis. Integer aliquet, massa id lobortis convallis, tortor risus dapibus augue, vel accumsan tellus nisi eu orci. Mauris lacinia sapien quis libero.\n\nNullam sit amet turpis elementum ligula vehicula consequat. Morbi a ipsum. Integer a nibh."},
{"id":65,"name":"Wikibox","address":"956 Rusk Lane","city":"Nandong","country":"China","lat":"38.10305","lng":"114.75817","revenue":"$522.33","notes":"Duis bibendum. Morbi non quam nec dui luctus rutrum. Nulla tellus.\n\nIn sagittis dui vel nisl. Duis ac nibh. Fusce lacus purus, aliquet at, feugiat non, pretium quis, lectus.\n\nSuspendisse potenti. In eleifend quam a odio. In hac habitasse platea dictumst."},
{"id":66,"name":"Twimbo","address":"709 Michigan Point","city":"Guadalupe","country":"Mexico","lat":"22.254","lng":"-100.2494"},
{"id":67,"name":"Yacero","address":"72088 Commercial Way","city":"Guanshan","country":"China","lat":"32.37349","lng":"110.8617","revenue":"$595.15","notes":"Cras mi pede, malesuada in, imperdiet et, commodo vulputate, justo. In blandit ultrices enim. Lorem ipsum dolor sit amet, consectetuer adipiscing elit.\n\nProin interdum mauris non ligula pellentesque ultrices. Phasellus id sapien in sapien iaculis congue. Vivamus metus arcu, adipiscing molestie, hendrerit at, vulputate vitae, nisl.\n\nAenean lectus. Pellentesque eget nunc. Donec quis orci eget orci vehicula condimentum."},
{"id":68,"name":"Ooba","address":"1310 Waubesa Park","city":"Bang Rakam","country":"Thailand","lat":"16.75847","lng":"100.11742","revenue":"$359.40","notes":"Vestibulum ac est lacinia nisi venenatis tristique. Fusce congue, diam id ornare imperdiet, sapien urna pretium nisl, ut volutpat sapien arcu sed augue. Aliquam erat volutpat."},
{"id":69,"name":"Eadel","address":"1 Welch Avenue","city":"Fucun","country":"China","lat":"29.24032","lng":"119.8932","revenue":"$969.21","notes":"Proin interdum mauris non ligula pellentesque ultrices. Phasellus id sapien in sapien iaculis congue. Vivamus metus arcu, adipiscing molestie, hendrerit at, vulputate vitae, nisl."},
{"id":70,"name":"Gigazoom","address":"3 Truax Junction","city":"Pradera","country":"Colombia","lat":"3.42111","lng":"-76.24472","revenue":"$340.05","notes":"Pellentesque at nulla. Suspendisse potenti. Cras in purus eu magna vulputate luctus.\n\nCum sociis natoque penatibus et magnis dis parturient montes, nascetur ridiculus mus. Vivamus vestibulum sagittis sapien. Cum sociis natoque penatibus et magnis dis parturient montes, nascetur ridiculus mus.\n\nEtiam vel augue. Vestibulum rutrum rutrum neque. Aenean auctor gravida sem."},
{"id":71,"name":"Jayo","address":"9 Colorado Road","city":"Kubang","country":"Indonesia","lat":"-7.4585","lng":"108.1106","revenue":"$152.11","notes":"Curabitur in libero ut massa volutpat convallis. Morbi odio odio, elementum eu, interdum eu, tincidunt in, leo. Maecenas pulvinar lobortis est.\n\nPhasellus sit amet erat. Nulla tempus. Vivamus in felis eu sapien cursus vestibulum."},
{"id":72,"name":"Mycat","address":"115 Fallview Lane","city":"Dimiao","country":"Philippines","lat":"9.6064","lng":"124.1633","revenue":"$124.34","notes":"Quisque id justo sit amet sapien dignissim vestibulum. Vestibulum ante ipsum primis in faucibus orci luctus et ultrices posuere cubilia Curae; Nulla dapibus dolor vel est. Donec odio justo, sollicitudin ut, suscipit a, feugiat et, eros.\n\nVestibulum ac est lacinia nisi venenatis tristique. Fusce congue, diam id ornare imperdiet, sapien urna pretium nisl, ut volutpat sapien arcu sed augue. Aliquam erat volutpat."},
{"id":73,"name":"Zoombox","address":"0676 Miller Place","city":"Zhangguanying","country":"China","lat":"33.65408","lng":"113.17455","revenue":"$312.91","notes":"Vestibulum quam sapien, varius ut, blandit non, interdum in, ante. Vestibulum ante ipsum primis in faucibus orci luctus et ultrices posuere cubilia Curae; Duis faucibus accumsan odio. Curabitur convallis."},
{"id":74,"name":"Jaxbean","address":"58 Lyons Alley","city":"Jacksonville","country":"United States","lat":"30.287","lng":"-81.3893","revenue":"$785.18","notes":"In sagittis dui vel nisl. Duis ac nibh. Fusce lacus purus, aliquet at, feugiat non, pretium quis, lectus.\n\nSuspendisse potenti. In eleifend quam a odio. In hac habitasse platea dictumst."},
{"id":75,"name":"DabZ","address":"74 Steensland Street","city":"Grytviken","country":"South Georgia and the South Sandwich Islands","lat":"-54.28111","lng":"-36.5092","revenue":"$2.53","notes":"Integer ac leo. Pellentesque ultrices mattis odio. Donec vitae nisi.\n\nNam ultrices, libero non mattis pulvinar, nulla pede ullamcorper augue, a suscipit nulla elit ac nulla. Sed vel enim sit amet nunc viverra dapibus. Nulla suscipit ligula in lacus."},
{"id":76,"name":"Thoughtstorm","address":"785 Anniversary Park","city":"Panggunguni","country":"Indonesia","lat":"-8.2027","lng":"112.0024","revenue":"$243.60","notes":"Morbi porttitor lorem id ligula. Suspendisse ornare consequat lectus. In est risus, auctor sed, tristique in, tempus sit amet, sem.\n\nFusce consequat. Nulla nisl. Nunc nisl."},
{"id":77,"name":"Geba","address":"8490 2nd Crossing","city":"Ergong","country":"China","lat":"43.85","lng":"87.56667","revenue":"$185.64","notes":"Nullam sit amet turpis elementum ligula vehicula consequat. Morbi a ipsum. Integer a nibh.\n\nIn quis justo. Maecenas rhoncus aliquam lacus. Morbi quis tortor id nulla ultrices aliquet."},
{"id":78,"name":"Twinte","address":"14 Birchwood Street","city":"Tateyama","country":"Japan","lat":"34.98333","lng":"139.86667","revenue":"$275.69","notes":"In hac habitasse platea dictumst. Morbi vestibulum, velit id pretium iaculis, diam erat fermentum justo, nec condimentum neque sapien placerat ante. Nulla justo."},
{"id":79,"name":"Thoughtbeat","address":"53 Londonderry Street","city":"Cibitung","country":"Indonesia","lat":"-7.3335","lng":"108.3629","revenue":"$660.14","notes":"Maecenas tristique, est et tempus semper, est quam pharetra magna, ac consequat metus sapien ut nunc. Vestibulum ante ipsum primis in faucibus orci luctus et ultrices posuere cubilia Curae; Mauris viverra diam vitae quam. Suspendisse potenti."},
{"id":80,"name":"Dabjam","address":"48 Waxwing Crossing","city":"Kon Tum","country":"Vietnam","lat":"14.35452","lng":"108.00759"},
{"id":81,"name":"Eare","address":"47 Knutson Street","city":"Uzyn","country":"Ukraine","lat":"49.82619","lng":"30.41487","revenue":"$267.65","notes":"Praesent blandit. Nam nulla. Integer pede justo, lacinia eget, tincidunt eget, tempus vel, pede.\n\nMorbi porttitor lorem id ligula. Suspendisse ornare consequat lectus. In est risus, auctor sed, tristique in, tempus sit amet, sem."},
{"id":82,"name":"Tanoodle","address":"5 Mitchell Avenue","city":"Conner","country":"Philippines","lat":"17.79639","lng":"121.3275","revenue":"$570.24","notes":"Fusce posuere felis sed lacus. Morbi sem mauris, laoreet ut, rhoncus aliquet, pulvinar sed, nisl. Nunc rhoncus dui vel sem."},
{"id":83,"name":"Flashdog","address":"33 Fulton Road","city":"Waso","country":"Indonesia","lat":"-8.4298","lng":"120.5859","revenue":"$111.96","notes":"Lorem ipsum dolor sit amet, consectetuer adipiscing elit. Proin risus. Praesent lectus."},
{"id":84,"name":"Realpoint","address":"1675 Miller Park","city":"Port Hawkesbury","country":"Canada","lat":"45.61685","lng":"-61.34853","revenue":"$242.99","notes":"Integer ac leo. Pellentesque ultrices mattis odio. Donec vitae nisi.\n\nNam ultrices, libero non mattis pulvinar, nulla pede ullamcorper augue, a suscipit nulla elit ac nulla. Sed vel enim sit amet nunc viverra dapibus. Nulla suscipit ligula in lacus."},
{"id":85,"name":"Photobug","address":"3172 Summit Terrace","city":"Jiasi","country":"China","lat":"29.11569","lng":"106.44691","revenue":"$286.35","notes":"Nullam porttitor lacus at turpis. Donec posuere metus vitae ipsum. Aliquam non mauris."},
{"id":86,"name":"Mynte","address":"27 Surrey Pass","city":"Xarardheere","country":"Somalia","lat":"4.6544","lng":"47.8575"},
{"id":87,"name":"Eazzy","address":"7865 Toban Street","city":"La Mesa","country":"Panama","lat":"8.15","lng":"-81.18333"},
{"id":88,"name":"Jayo","address":"2761 Kim Hill","city":"Moca","country":"Dominican Republic","lat":"19.39352","lng":"-70.52598","revenue":"$837.04","notes":"In hac habitasse platea dictumst. Morbi vestibulum, velit id pretium iaculis, diam erat fermentum justo, nec condimentum neque sapien placerat ante. Nulla justo.\n\nAliquam quis turpis eget elit sodales scelerisque. Mauris sit amet eros. Suspendisse accumsan tortor quis turpis."},
{"id":89,"name":"Thoughtstorm","address":"37 Stang Crossing","city":"Calilegua","country":"Argentina","lat":"-23.77368","lng":"-64.77002","revenue":"$354.05","notes":"Vestibulum quam sapien, varius ut, blandit non, interdum in, ante. Vestibulum ante ipsum primis in faucibus orci luctus et ultrices posuere cubilia Curae; Duis faucibus accumsan odio. Curabitur convallis."},
{"id":90,"name":"Camimbo","address":"81 Waxwing Junction","city":"Chinú","country":"Colombia","lat":"9.10569","lng":"-75.39812","revenue":"$25.78","notes":"Cras mi pede, malesuada in, imperdiet et, commodo vulputate, justo. In blandit ultrices enim. Lorem ipsum dolor sit amet, consectetuer adipiscing elit.\n\nProin interdum mauris non ligula pellentesque ultrices. Phasellus id sapien in sapien iaculis congue. Vivamus metus arcu, adipiscing molestie, hendrerit at, vulputate vitae, nisl.\n\nAenean lectus. Pellentesque eget nunc. Donec quis orci eget orci vehicula condimentum."},
{"id":91,"name":"Babblestorm","address":"76083 Packers Plaza","city":"Jāmpur","country":"Pakistan","lat":"29.64414","lng":"70.59544","revenue":"$717.35","notes":"Quisque id justo sit amet sapien dignissim vestibulum. Vestibulum ante ipsum primis in faucibus orci luctus et ultrices posuere cubilia Curae; Nulla dapibus dolor vel est. Donec odio justo, sollicitudin ut, suscipit a, feugiat et, eros.\n\nVestibulum ac est lacinia nisi venenatis tristique. Fusce congue, diam id ornare imperdiet, sapien urna pretium nisl, ut volutpat sapien arcu sed augue. Aliquam erat volutpat.\n\nIn congue. Etiam justo. Etiam pretium iaculis justo."},
{"id":92,"name":"Topicshots","address":"157 Bashford Street","city":"Aroroy","country":"Philippines","lat":"12.5111","lng":"123.3977","revenue":"$555.01","notes":"Duis bibendum. Morbi non quam nec dui luctus rutrum. Nulla tellus."},
{"id":93,"name":"Yacero","address":"18694 Rowland Way","city":"Bejuco","country":"Costa Rica","lat":"9.85014","lng":"-85.32924","revenue":"$35.51","notes":"Curabitur gravida nisi at nibh. In hac habitasse platea dictumst. Aliquam augue quam, sollicitudin vitae, consectetuer eget, rutrum at, lorem.\n\nInteger tincidunt ante vel ipsum. Praesent blandit lacinia erat. Vestibulum sed magna at nunc commodo placerat."},
{"id":94,"name":"Mydo","address":"63198 Clarendon Drive","city":"Xingang","country":"China","lat":"29.7542","lng":"116.09721","revenue":"$470.68","notes":"Quisque id justo sit amet sapien dignissim vestibulum. Vestibulum ante ipsum primis in faucibus orci luctus et ultrices posuere cubilia Curae; Nulla dapibus dolor vel est. Donec odio justo, sollicitudin ut, suscipit a, feugiat et, eros.\n\nVestibulum ac est lacinia nisi venenatis tristique. Fusce congue, diam id ornare imperdiet, sapien urna pretium nisl, ut volutpat sapien arcu sed augue. Aliquam erat volutpat.\n\nIn congue. Etiam justo. Etiam pretium iaculis justo."},
{"id":95,"name":"Izio","address":"7832 Ilene Road","city":"Tīrān","country":"Iran","lat":"32.7026","lng":"51.1537","revenue":"$400.95","notes":"Sed ante. Vivamus tortor. Duis mattis egestas metus.\n\nAenean fermentum. Donec ut mauris eget massa tempor convallis. Nulla neque libero, convallis eget, eleifend luctus, ultricies eu, nibh.\n\nQuisque id justo sit amet sapien dignissim vestibulum. Vestibulum ante ipsum primis in faucibus orci luctus et ultrices posuere cubilia Curae; Nulla dapibus dolor vel est. Donec odio justo, sollicitudin ut, suscipit a, feugiat et, eros."},
{"id":96,"name":"Ntags","address":"8768 Bluejay Place","city":"Charlton","country":"United Kingdom","lat":"51.5954","lng":"-1.4259","revenue":"$778.88","notes":"Suspendisse potenti. In eleifend quam a odio. In hac habitasse platea dictumst.\n\nMaecenas ut massa quis augue luctus tincidunt. Nulla mollis molestie lorem. Quisque ut erat."},
{"id":97,"name":"Ailane","address":"92 Artisan Park","city":"Huangguan","country":"China","lat":"37.44331","lng":"122.14735","revenue":"$296.55","notes":"Aenean lectus. Pellentesque eget nunc. Donec quis orci eget orci vehicula condimentum.\n\nCurabitur in libero ut massa volutpat convallis. Morbi odio odio, elementum eu, interdum eu, tincidunt in, leo. Maecenas pulvinar lobortis est."},
{"id":98,"name":"Twitterwire","address":"2286 Susan Parkway","city":"Myanaung","country":"Myanmar","lat":"18.28651","lng":"95.32014","revenue":"$771.48","notes":"In sagittis dui vel nisl. Duis ac nibh. Fusce lacus purus, aliquet at, feugiat non, pretium quis, lectus."},
{"id":99,"name":"Dynava","address":"4355 Morningstar Junction","city":"Jatimulyo","country":"Indonesia","lat":"-8.5136","lng":"114.2571","revenue":"$637.02","notes":"Fusce consequat. Nulla nisl. Nunc nisl."},
{"id":100,"name":"Mydo","address":"434 North Drive","city":"Lapi","country":"Philippines","lat":"17.716","lng":"121.89775","revenue":"$731.03","notes":"Cras non velit nec nisi vulputate nonummy. Maecenas tincidunt lacus at velit. Vivamus vel nulla eget eros elementum pellentesque.\n\nQuisque porta volutpat erat. Quisque erat eros, viverra eget, congue eget, semper rutrum, nulla. Nunc purus.\n\nPhasellus in felis. Donec semper sapien a libero. Nam dui."},
{"id":101,"name":"Zava","address":"869 Sunfield Court","city":"Shatrovo","country":"Russia","lat":"56.5197","lng":"64.632","revenue":"$548.15","notes":"Duis aliquam convallis nunc. Proin at turpis a pede posuere nonummy. Integer non velit."},
{"id":102,"name":"Devcast","address":"38 Delaware Lane","city":"Nangtang","country":"Indonesia","lat":"-7.3482","lng":"107.987","revenue":"$793.67","notes":"Vestibulum quam sapien, varius ut, blandit non, interdum in, ante. Vestibulum ante ipsum primis in faucibus orci luctus et ultrices posuere cubilia Curae; Duis faucibus accumsan odio. Curabitur convallis.\n\nDuis consequat dui nec nisi volutpat eleifend. Donec ut dolor. Morbi vel lectus in quam fringilla rhoncus."},
{"id":103,"name":"Vinder","address":"5255 Bultman Crossing","city":"Paulpietersburg","country":"South Africa","lat":"-27.42426","lng":"30.81689"},
{"id":104,"name":"Youspan","address":"2 Shopko Avenue","city":"Karangwaru","country":"Indonesia","lat":"-8.0703","lng":"111.8984","revenue":"$874.09","notes":"Sed sagittis. Nam congue, risus semper porta volutpat, quam pede lobortis ligula, sit amet eleifend pede libero quis orci. Nullam molestie nibh in lectus."},
{"id":105,"name":"Jayo","address":"709 Morrow Circle","city":"Vandœuvre-lès-Nancy","country":"France","lat":"48.65","lng":"6.1833","revenue":"$645.68","notes":"Sed sagittis. Nam congue, risus semper porta volutpat, quam pede lobortis ligula, sit amet eleifend pede libero quis orci. Nullam molestie nibh in lectus."},
{"id":106,"name":"Gigazoom","address":"5 Sherman Park","city":"Upper Hell's Gate","country":"Bonaire, Saint Eustatius and Saba ","lat":"17.643","lng":"-63.22649","revenue":"$434.94","notes":"Quisque id justo sit amet sapien dignissim vestibulum. Vestibulum ante ipsum primis in faucibus orci luctus et ultrices posuere cubilia Curae; Nulla dapibus dolor vel est. Donec odio justo, sollicitudin ut, suscipit a, feugiat et, eros."},
{"id":107,"name":"Omba","address":"5651 Service Trail","city":"Azteca","country":"Mexico","lat":"23.671","lng":"-98.6551"},
{"id":108,"name":"Tagchat","address":"9681 Gulseth Lane","city":"Mionica","country":"Bosnia and Herzegovina","lat":"44.86646","lng":"18.46603","revenue":"$137.74","notes":"Aliquam quis turpis eget elit sodales scelerisque. Mauris sit amet eros. Suspendisse accumsan tortor quis turpis.\n\nSed ante. Vivamus tortor. Duis mattis egestas metus."},
{"id":109,"name":"Skimia","address":"9 Michigan Street","city":"Nankou","country":"China","lat":"24.27437","lng":"115.98753","revenue":"$582.14","notes":"Maecenas ut massa quis augue luctus tincidunt. Nulla mollis molestie lorem. Quisque ut erat."},
{"id":110,"name":"Divavu","address":"211 Weeping Birch Alley","city":"Castlemartyr","country":"Ireland","lat":"51.91028","lng":"-8.05389"},
{"id":111,"name":"Quaxo","address":"26 Fallview Road","city":"Cinangka","country":"Indonesia","lat":"-6.8707","lng":"106.3989","revenue":"$936.67","notes":"Nullam porttitor lacus at turpis. Donec posuere metus vitae ipsum. Aliquam non mauris.\n\nMorbi non lectus. Aliquam sit amet diam in magna bibendum imperdiet. Nullam orci pede, venenatis non, sodales sed, tincidunt eu, felis."},
{"id":112,"name":"Brightbean","address":"8 Hoffman Parkway","city":"Sumurgung","country":"Indonesia","lat":"-6.9082","lng":"112.106","revenue":"$824.34","notes":"Praesent id massa id nisl venenatis lacinia. Aenean sit amet justo. Morbi ut odio.\n\nCras mi pede, malesuada in, imperdiet et, commodo vulputate, justo. In blandit ultrices enim. Lorem ipsum dolor sit amet, consectetuer adipiscing elit."},
{"id":113,"name":"Skimia","address":"68921 Morrow Street","city":"Sanxi","country":"China","lat":"28.70271","lng":"120.2776","revenue":"$398.09","notes":"Duis aliquam convallis nunc. Proin at turpis a pede posuere nonummy. Integer non velit.\n\nDonec diam neque, vestibulum eget, vulputate ut, ultrices vel, augue. Vestibulum ante ipsum primis in faucibus orci luctus et ultrices posuere cubilia Curae; Donec pharetra, magna vestibulum aliquet ultrices, erat tortor sollicitudin mi, sit amet lobortis sapien sapien non mi. Integer ac neque."},
{"id":114,"name":"Edgeblab","address":"8099 Judy Junction","city":"Shiyan","country":"China","lat":"44.17671","lng":"129.33538","revenue":"$964.67","notes":"Vestibulum ac est lacinia nisi venenatis tristique. Fusce congue, diam id ornare imperdiet, sapien urna pretium nisl, ut volutpat sapien arcu sed augue. Aliquam erat volutpat.\n\nIn congue. Etiam justo. Etiam pretium iaculis justo.\n\nIn hac habitasse platea dictumst. Etiam faucibus cursus urna. Ut tellus."},
{"id":115,"name":"Yozio","address":"17 Anniversary Road","city":"Pulo","country":"Philippines","lat":"14.71462","lng":"121.63293","revenue":"$564.45","notes":"Sed ante. Vivamus tortor. Duis mattis egestas metus.\n\nAenean fermentum. Donec ut mauris eget massa tempor convallis. Nulla neque libero, convallis eget, eleifend luctus, ultricies eu, nibh.\n\nQuisque id justo sit amet sapien dignissim vestibulum. Vestibulum ante ipsum primis in faucibus orci luctus et ultrices posuere cubilia Curae; Nulla dapibus dolor vel est. Donec odio justo, sollicitudin ut, suscipit a, feugiat et, eros."},
{"id":116,"name":"Plajo","address":"65 Boyd Drive","city":"Sesheke","country":"Zambia","lat":"-17.47593","lng":"24.29684","revenue":"$199.36","notes":"Pellentesque at nulla. Suspendisse potenti. Cras in purus eu magna vulputate luctus."},
{"id":117,"name":"Wikizz","address":"515 Forster Junction","city":"Balogo","country":"Philippines","lat":"13.5016","lng":"123.0638","revenue":"$679.86","notes":"Praesent id massa id nisl venenatis lacinia. Aenean sit amet justo. Morbi ut odio.\n\nCras mi pede, malesuada in, imperdiet et, commodo vulputate, justo. In blandit ultrices enim. Lorem ipsum dolor sit amet, consectetuer adipiscing elit."},
{"id":118,"name":"Fliptune","address":"27 Anthes Pass","city":"Puerto La Cruz","country":"Venezuela","lat":"10.21667","lng":"-64.61667","revenue":"$329.03","notes":"Pellentesque at nulla. Suspendisse potenti. Cras in purus eu magna vulputate luctus.\n\nCum sociis natoque penatibus et magnis dis parturient montes, nascetur ridiculus mus. Vivamus vestibulum sagittis sapien. Cum sociis natoque penatibus et magnis dis parturient montes, nascetur ridiculus mus."},
{"id":119,"name":"Midel","address":"92 Longview Junction","city":"Kosino","country":"Russia","lat":"58.41272","lng":"51.27819","revenue":"$814.94","notes":"Nulla ut erat id mauris vulputate elementum. Nullam varius. Nulla facilisi.\n\nCras non velit nec nisi vulputate nonummy. Maecenas tincidunt lacus at velit. Vivamus vel nulla eget eros elementum pellentesque."},
{"id":120,"name":"Fatz","address":"6683 Mosinee Way","city":"Sanandaj","country":"Iran","lat":"35.31495","lng":"46.99883","revenue":"$612.71","notes":"Sed ante. Vivamus tortor. Duis mattis egestas metus.\n\nAenean fermentum. Donec ut mauris eget massa tempor convallis. Nulla neque libero, convallis eget, eleifend luctus, ultricies eu, nibh."},
{"id":121,"name":"Tekfly","address":"35 Welch Pass","city":"Sawin","country":"Poland","lat":"51.27443","lng":"23.43375"},
{"id":122,"name":"Twitterbridge","address":"2775 Scott Trail","city":"Beixiang","country":"China","lat":"25.19444","lng":"113.35972","revenue":"$528.69","notes":"Quisque porta volutpat erat. Quisque erat eros, viverra eget, congue eget, semper rutrum, nulla. Nunc purus.\n\nPhasellus in felis. Donec semper sapien a libero. Nam dui.\n\nProin leo odio, porttitor id, consequat in, consequat ut, nulla. Sed accumsan felis. Ut at dolor quis odio consequat varius."},
{"id":123,"name":"Topicshots","address":"7 Fordem Terrace","city":"Rokem Barat","country":"Indonesia","lat":"-6.8973","lng":"113.5316","revenue":"$688.56","notes":"Duis bibendum, felis sed interdum venenatis, turpis enim blandit mi, in porttitor pede justo eu massa. Donec dapibus. Duis at velit eu est congue elementum.\n\nIn hac habitasse platea dictumst. Morbi vestibulum, velit id pretium iaculis, diam erat fermentum justo, nec condimentum neque sapien placerat ante. Nulla justo.\n\nAliquam quis turpis eget elit sodales scelerisque. Mauris sit amet eros. Suspendisse accumsan tortor quis turpis."},
{"id":124,"name":"Divape","address":"2440 Jenifer Pass","city":"Kim Sơn","country":"Vietnam","lat":"19.60409","lng":"104.91903","revenue":"$915.65","notes":"Donec diam neque, vestibulum eget, vulputate ut, ultrices vel, augue. Vestibulum ante ipsum primis in faucibus orci luctus et ultrices posuere cubilia Curae; Donec pharetra, magna vestibulum aliquet ultrices, erat tortor sollicitudin mi, sit amet lobortis sapien sapien non mi. Integer ac neque."},
{"id":125,"name":"Zoovu","address":"1416 Northland Hill","city":"Birendranagar","country":"Nepal","lat":"28.60194","lng":"81.63389","revenue":"$214.02","notes":"Sed ante. Vivamus tortor. Duis mattis egestas metus."},
{"id":126,"name":"Fivechat","address":"17344 Continental Trail","city":"La Carlota","country":"Philippines","lat":"10.4242","lng":"122.9212","revenue":"$801.78","notes":"Aliquam quis turpis eget elit sodales scelerisque. Mauris sit amet eros. Suspendisse accumsan tortor quis turpis."},
{"id":127,"name":"Dynabox","address":"26853 Hermina Trail","city":"Enschede","country":"Netherlands","lat":"52.2183","lng":"6.8958","revenue":"$749.43","notes":"In quis justo. Maecenas rhoncus aliquam lacus. Morbi quis tortor id nulla ultrices aliquet.\n\nMaecenas leo odio, condimentum id, luctus nec, molestie sed, justo. Pellentesque viverra pede ac diam. Cras pellentesque volutpat dui.\n\nMaecenas tristique, est et tempus semper, est quam pharetra magna, ac consequat metus sapien ut nunc. Vestibulum ante ipsum primis in faucibus orci luctus et ultrices posuere cubilia Curae; Mauris viverra diam vitae quam. Suspendisse potenti."},
{"id":128,"name":"Tazzy","address":"80321 Rutledge Point","city":"Invermere","country":"Canada","lat":"50.51666","lng":"-116.03538","revenue":"$167.26","notes":"Aliquam quis turpis eget elit sodales scelerisque. Mauris sit amet eros. Suspendisse accumsan tortor quis turpis."},
{"id":129,"name":"Roombo","address":"7 Oneill Pass","city":"Rulenge","country":"Tanzania","lat":"-2.7175","lng":"30.6325","revenue":"$828.93","notes":"In hac habitasse platea dictumst. Morbi vestibulum, velit id pretium iaculis, diam erat fermentum justo, nec condimentum neque sapien placerat ante. Nulla justo."},
{"id":130,"name":"Youfeed","address":"146 Dwight Place","city":"Vessada","country":"Portugal","lat":"40.6333","lng":"-8.65"},
{"id":131,"name":"Quimm","address":"382 Warner Center","city":"Chiţcani","country":"Moldova","lat":"46.78296","lng":"29.61682","revenue":"$989.95","notes":"Sed ante. Vivamus tortor. Duis mattis egestas metus."},
{"id":132,"name":"Browsebug","address":"109 Granby Avenue","city":"Dayan","country":"China","lat":"30.33932","lng":"111.08409","revenue":"$435.87","notes":"Integer tincidunt ante vel ipsum. Praesent blandit lacinia erat. Vestibulum sed magna at nunc commodo placerat.\n\nPraesent blandit. Nam nulla. Integer pede justo, lacinia eget, tincidunt eget, tempus vel, pede."},
{"id":133,"name":"Trudoo","address":"81 Starling Point","city":"Khallat ad Dār","country":"Palestinian Territory","lat":"31.49737","lng":"35.11362","revenue":"$114.46","notes":"Aliquam quis turpis eget elit sodales scelerisque. Mauris sit amet eros. Suspendisse accumsan tortor quis turpis."},
{"id":134,"name":"Blogspan","address":"09457 Veith Alley","city":"Sanjiao","country":"China","lat":"22.685","lng":"113.4275","revenue":"$20.08","notes":"Cum sociis natoque penatibus et magnis dis parturient montes, nascetur ridiculus mus. Vivamus vestibulum sagittis sapien. Cum sociis natoque penatibus et magnis dis parturient montes, nascetur ridiculus mus.\n\nEtiam vel augue. Vestibulum rutrum rutrum neque. Aenean auctor gravida sem.\n\nPraesent id massa id nisl venenatis lacinia. Aenean sit amet justo. Morbi ut odio."},
{"id":135,"name":"Katz","address":"6 Ohio Way","city":"Mazatenango","country":"Guatemala","lat":"14.53417","lng":"-91.50333","revenue":"$820.29","notes":"Integer ac leo. Pellentesque ultrices mattis odio. Donec vitae nisi.\n\nNam ultrices, libero non mattis pulvinar, nulla pede ullamcorper augue, a suscipit nulla elit ac nulla. Sed vel enim sit amet nunc viverra dapibus. Nulla suscipit ligula in lacus.\n\nCurabitur at ipsum ac tellus semper interdum. Mauris ullamcorper purus sit amet nulla. Quisque arcu libero, rutrum ac, lobortis vel, dapibus at, diam."},
{"id":136,"name":"Omba","address":"2395 Almo Alley","city":"Tamahú","country":"Guatemala","lat":"15.3089","lng":"-90.23599","revenue":"$534.98","notes":"Cum sociis natoque penatibus et magnis dis parturient montes, nascetur ridiculus mus. Vivamus vestibulum sagittis sapien. Cum sociis natoque penatibus et magnis dis parturient montes, nascetur ridiculus mus.\n\nEtiam vel augue. Vestibulum rutrum rutrum neque. Aenean auctor gravida sem.\n\nPraesent id massa id nisl venenatis lacinia. Aenean sit amet justo. Morbi ut odio."},
{"id":137,"name":"Fanoodle","address":"29138 Oxford Road","city":"Joconal","country":"Honduras","lat":"15.35444","lng":"-88.63556"},
{"id":138,"name":"Mycat","address":"62531 Dexter Point","city":"Solok Timur","country":"Indonesia","lat":"-7.0594","lng":"113.7474","revenue":"$850.49","notes":"Nulla ut erat id mauris vulputate elementum. Nullam varius. Nulla facilisi.\n\nCras non velit nec nisi vulputate nonummy. Maecenas tincidunt lacus at velit. Vivamus vel nulla eget eros elementum pellentesque.\n\nQuisque porta volutpat erat. Quisque erat eros, viverra eget, congue eget, semper rutrum, nulla. Nunc purus."},
{"id":139,"name":"Demizz","address":"171 Heffernan Lane","city":"Warnes","country":"Bolivia","lat":"-17.5","lng":"-63.16667","revenue":"$945.32","notes":"Vestibulum ac est lacinia nisi venenatis tristique. Fusce congue, diam id ornare imperdiet, sapien urna pretium nisl, ut volutpat sapien arcu sed augue. Aliquam erat volutpat."},
{"id":140,"name":"Cogidoo","address":"4496 Green Ridge Street","city":"Xiaohenglong","country":"China","lat":"27.605","lng":"110.51694"},
{"id":141,"name":"Oyoba","address":"36118 Springview Crossing","city":"Tai Po","country":"Hong Kong","lat":"22.45007","lng":"114.16877","revenue":"$495.98","notes":"Vestibulum quam sapien, varius ut, blandit non, interdum in, ante. Vestibulum ante ipsum primis in faucibus orci luctus et ultrices posuere cubilia Curae; Duis faucibus accumsan odio. Curabitur convallis.\n\nDuis consequat dui nec nisi volutpat eleifend. Donec ut dolor. Morbi vel lectus in quam fringilla rhoncus.\n\nMauris enim leo, rhoncus sed, vestibulum sit amet, cursus id, turpis. Integer aliquet, massa id lobortis convallis, tortor risus dapibus augue, vel accumsan tellus nisi eu orci. Mauris lacinia sapien quis libero."},
{"id":142,"name":"Skynoodle","address":"52046 Heath Terrace","city":"Iranduba","country":"Brazil","lat":"-3.28472","lng":"-60.18611","revenue":"$537.13","notes":"In hac habitasse platea dictumst. Morbi vestibulum, velit id pretium iaculis, diam erat fermentum justo, nec condimentum neque sapien placerat ante. Nulla justo."},
{"id":143,"name":"Trudoo","address":"650 Lerdahl Junction","city":"Puerto Maldonado","country":"Peru","lat":"-12.59331","lng":"-69.18913","revenue":"$146.78","notes":"Proin interdum mauris non ligula pellentesque ultrices. Phasellus id sapien in sapien iaculis congue. Vivamus metus arcu, adipiscing molestie, hendrerit at, vulputate vitae, nisl."},
{"id":144,"name":"Divavu","address":"1477 Victoria Circle","city":"Puncakwangi","country":"Indonesia","lat":"-7.4722","lng":"107.4113","revenue":"$86.09","notes":"Integer ac leo. Pellentesque ultrices mattis odio. Donec vitae nisi.\n\nNam ultrices, libero non mattis pulvinar, nulla pede ullamcorper augue, a suscipit nulla elit ac nulla. Sed vel enim sit amet nunc viverra dapibus. Nulla suscipit ligula in lacus."},
{"id":145,"name":"Feedfish","address":"088 Waubesa Court","city":"Blantyre","country":"Malawi","lat":"-15.78499","lng":"35.00854","revenue":"$106.36","notes":"Aenean lectus. Pellentesque eget nunc. Donec quis orci eget orci vehicula condimentum."},
{"id":146,"name":"Skynoodle","address":"6238 Old Gate Park","city":"Tangzhuang","country":"China","lat":"33.10342","lng":"112.94822","revenue":"$547.38","notes":"Suspendisse potenti. In eleifend quam a odio. In hac habitasse platea dictumst.\n\nMaecenas ut massa quis augue luctus tincidunt. Nulla mollis molestie lorem. Quisque ut erat."},
{"id":147,"name":"Edgetag","address":"4213 Union Circle","city":"Oslo","country":"Norway","lat":"59.9127","lng":"10.7461","revenue":"$225.62","notes":"Curabitur in libero ut massa volutpat convallis. Morbi odio odio, elementum eu, interdum eu, tincidunt in, leo. Maecenas pulvinar lobortis est.\n\nPhasellus sit amet erat. Nulla tempus. Vivamus in felis eu sapien cursus vestibulum.\n\nProin eu mi. Nulla ac enim. In tempor, turpis nec euismod scelerisque, quam turpis adipiscing lorem, vitae mattis nibh ligula nec sem."},
{"id":148,"name":"Mydeo","address":"44 Lawn Pass","city":"Pojok","country":"Indonesia","lat":"-8.1415","lng":"111.8928","revenue":"$692.96","notes":"Aenean fermentum. Donec ut mauris eget massa tempor convallis. Nulla neque libero, convallis eget, eleifend luctus, ultricies eu, nibh.\n\nQuisque id justo sit amet sapien dignissim vestibulum. Vestibulum ante ipsum primis in faucibus orci luctus et ultrices posuere cubilia Curae; Nulla dapibus dolor vel est. Donec odio justo, sollicitudin ut, suscipit a, feugiat et, eros."},
{"id":149,"name":"InnoZ","address":"2000 Everett Circle","city":"Sungaikupang","country":"Indonesia","lat":"-3.0438","lng":"115.9918","revenue":"$969.02","notes":"Quisque porta volutpat erat. Quisque erat eros, viverra eget, congue eget, semper rutrum, nulla. Nunc purus."},
{"id":150,"name":"Centidel","address":"03185 Union Circle","city":"Saryözek","country":"Kazakhstan","lat":"44.36121","lng":"77.97644","revenue":"$376.78","notes":"Phasellus sit amet erat. Nulla tempus. Vivamus in felis eu sapien cursus vestibulum.\n\nProin eu mi. Nulla ac enim. In tempor, turpis nec euismod scelerisque, quam turpis adipiscing lorem, vitae mattis nibh ligula nec sem.\n\nDuis aliquam convallis nunc. Proin at turpis a pede posuere nonummy. Integer non velit."},
{"id":151,"name":"Skivee","address":"9980 Lukken Circle","city":"Yambol","country":"Bulgaria","lat":"42.48333","lng":"26.5"},
{"id":152,"name":"Riffpath","address":"2 4th Terrace","city":"Usatove","country":"Ukraine","lat":"46.53296","lng":"30.6596","revenue":"$884.22","notes":"Sed ante. Vivamus tortor. Duis mattis egestas metus.\n\nAenean fermentum. Donec ut mauris eget massa tempor convallis. Nulla neque libero, convallis eget, eleifend luctus, ultricies eu, nibh.\n\nQuisque id justo sit amet sapien dignissim vestibulum. Vestibulum ante ipsum primis in faucibus orci luctus et ultrices posuere cubilia Curae; Nulla dapibus dolor vel est. Donec odio justo, sollicitudin ut, suscipit a, feugiat et, eros."},
{"id":153,"name":"Riffwire","address":"1 Merrick Place","city":"Buritizeiro","country":"Brazil","lat":"-17.35111","lng":"-44.96222","revenue":"$912.10","notes":"Quisque id justo sit amet sapien dignissim vestibulum. Vestibulum ante ipsum primis in faucibus orci luctus et ultrices posuere cubilia Curae; Nulla dapibus dolor vel est. Donec odio justo, sollicitudin ut, suscipit a, feugiat et, eros."},
{"id":154,"name":"Thoughtblab","address":"84 Aberg Point","city":"Leuwipicung","country":"Indonesia","lat":"-7.716","lng":"108.0766","revenue":"$820.39","notes":"In quis justo. Maecenas rhoncus aliquam lacus. Morbi quis tortor id nulla ultrices aliquet."},
{"id":155,"name":"Gabtune","address":"8 Dixon Way","city":"Detroit","country":"United States","lat":"42.3809","lng":"-83.0409","revenue":"$852.76","notes":"Praesent blandit. Nam nulla. Integer pede justo, lacinia eget, tincidunt eget, tempus vel, pede.\n\nMorbi porttitor lorem id ligula. Suspendisse ornare consequat lectus. In est risus, auctor sed, tristique in, tempus sit amet, sem.\n\nFusce consequat. Nulla nisl. Nunc nisl."},
{"id":156,"name":"Thoughtbridge","address":"53 Monument Trail","city":"Obong","country":"Philippines","lat":"9.741","lng":"123.5098","revenue":"$633.28","notes":"Duis bibendum, felis sed interdum venenatis, turpis enim blandit mi, in porttitor pede justo eu massa. Donec dapibus. Duis at velit eu est congue elementum.\n\nIn hac habitasse platea dictumst. Morbi vestibulum, velit id pretium iaculis, diam erat fermentum justo, nec condimentum neque sapien placerat ante. Nulla justo."},
{"id":157,"name":"Flipbug","address":"2681 Waubesa Hill","city":"Udachny","country":"Russia","lat":"66.42989","lng":"112.4021","revenue":"$896.27","notes":"Nullam sit amet turpis elementum ligula vehicula consequat. Morbi a ipsum. Integer a nibh."},
{"id":158,"name":"Eayo","address":"0 Lotheville Drive","city":"Gorki Vtoryye","country":"Russia","lat":"55.72565","lng":"37.1635","revenue":"$639.09","notes":"Quisque porta volutpat erat. Quisque erat eros, viverra eget, congue eget, semper rutrum, nulla. Nunc purus.\n\nPhasellus in felis. Donec semper sapien a libero. Nam dui.\n\nProin leo odio, porttitor id, consequat in, consequat ut, nulla. Sed accumsan felis. Ut at dolor quis odio consequat varius."},
{"id":159,"name":"Oloo","address":"58865 Sage Road","city":"Xingang","country":"China","lat":"31.72512","lng":"120.92012","revenue":"$43.48","notes":"Praesent blandit. Nam nulla. Integer pede justo, lacinia eget, tincidunt eget, tempus vel, pede.\n\nMorbi porttitor lorem id ligula. Suspendisse ornare consequat lectus. In est risus, auctor sed, tristique in, tempus sit amet, sem."},
{"id":160,"name":"Oodoo","address":"4009 Anthes Center","city":"Beidajie","country":"China","lat":"31.58528","lng":"120.29004","revenue":"$986.66","notes":"Sed ante. Vivamus tortor. Duis mattis egestas metus.\n\nAenean fermentum. Donec ut mauris eget massa tempor convallis. Nulla neque libero, convallis eget, eleifend luctus, ultricies eu, nibh."},
{"id":161,"name":"Skyba","address":"23 Glacier Hill Drive","city":"Pires do Rio","country":"Brazil","lat":"-17.29972","lng":"-48.27944","revenue":"$607.83","notes":"Fusce consequat. Nulla nisl. Nunc nisl.\n\nDuis bibendum, felis sed interdum venenatis, turpis enim blandit mi, in porttitor pede justo eu massa. Donec dapibus. Duis at velit eu est congue elementum."},
{"id":162,"name":"Tanoodle","address":"17 Birchwood Crossing","city":"Adorjan","country":"Serbia","lat":"46.00333","lng":"20.04007","revenue":"$340.79","notes":"Vestibulum quam sapien, varius ut, blandit non, interdum in, ante. Vestibulum ante ipsum primis in faucibus orci luctus et ultrices posuere cubilia Curae; Duis faucibus accumsan odio. Curabitur convallis.\n\nDuis consequat dui nec nisi volutpat eleifend. Donec ut dolor. Morbi vel lectus in quam fringilla rhoncus.\n\nMauris enim leo, rhoncus sed, vestibulum sit amet, cursus id, turpis. Integer aliquet, massa id lobortis convallis, tortor risus dapibus augue, vel accumsan tellus nisi eu orci. Mauris lacinia sapien quis libero."},
{"id":163,"name":"InnoZ","address":"582 Merry Avenue","city":"Liwonde","country":"Malawi","lat":"-15.06665","lng":"35.22543","revenue":"$4.41","notes":"Cras non velit nec nisi vulputate nonummy. Maecenas tincidunt lacus at velit. Vivamus vel nulla eget eros elementum pellentesque.\n\nQuisque porta volutpat erat. Quisque erat eros, viverra eget, congue eget, semper rutrum, nulla. Nunc purus."},
{"id":164,"name":"Kwimbee","address":"14995 Gina Crossing","city":"Cacaopera","country":"El Salvador","lat":"13.76667","lng":"-88.08333","revenue":"$432.30","notes":"Fusce consequat. Nulla nisl. Nunc nisl.\n\nDuis bibendum, felis sed interdum venenatis, turpis enim blandit mi, in porttitor pede justo eu massa. Donec dapibus. Duis at velit eu est congue elementum."},
{"id":165,"name":"Mybuzz","address":"40 Jenna Center","city":"Daytona Beach","country":"United States","lat":"29.0838","lng":"-81.0336","revenue":"$792.71","notes":"Donec diam neque, vestibulum eget, vulputate ut, ultrices vel, augue. Vestibulum ante ipsum primis in faucibus orci luctus et ultrices posuere cubilia Curae; Donec pharetra, magna vestibulum aliquet ultrices, erat tortor sollicitudin mi, sit amet lobortis sapien sapien non mi. Integer ac neque.\n\nDuis bibendum. Morbi non quam nec dui luctus rutrum. Nulla tellus.\n\nIn sagittis dui vel nisl. Duis ac nibh. Fusce lacus purus, aliquet at, feugiat non, pretium quis, lectus."},
{"id":166,"name":"Quinu","address":"42972 Mallard Center","city":"Potrerillos","country":"Honduras","lat":"15.23333","lng":"-87.96667","revenue":"$813.15","notes":"Curabitur gravida nisi at nibh. In hac habitasse platea dictumst. Aliquam augue quam, sollicitudin vitae, consectetuer eget, rutrum at, lorem.\n\nInteger tincidunt ante vel ipsum. Praesent blandit lacinia erat. Vestibulum sed magna at nunc commodo placerat.\n\nPraesent blandit. Nam nulla. Integer pede justo, lacinia eget, tincidunt eget, tempus vel, pede."},
{"id":167,"name":"Feednation","address":"34721 John Wall Parkway","city":"Khlong Luang","country":"Thailand","lat":"14.06467","lng":"100.64578","revenue":"$479.12","notes":"Nullam porttitor lacus at turpis. Donec posuere metus vitae ipsum. Aliquam non mauris.\n\nMorbi non lectus. Aliquam sit amet diam in magna bibendum imperdiet. Nullam orci pede, venenatis non, sodales sed, tincidunt eu, felis.\n\nFusce posuere felis sed lacus. Morbi sem mauris, laoreet ut, rhoncus aliquet, pulvinar sed, nisl. Nunc rhoncus dui vel sem."},
{"id":168,"name":"Eimbee","address":"5092 Basil Hill","city":"Piñas","country":"Ecuador","lat":"-3.68107","lng":"-79.68083","revenue":"$418.69","notes":"Nulla ut erat id mauris vulputate elementum. Nullam varius. Nulla facilisi.\n\nCras non velit nec nisi vulputate nonummy. Maecenas tincidunt lacus at velit. Vivamus vel nulla eget eros elementum pellentesque.\n\nQuisque porta volutpat erat. Quisque erat eros, viverra eget, congue eget, semper rutrum, nulla. Nunc purus."},
{"id":169,"name":"Skyba","address":"8 Judy Road","city":"Zhoutian","country":"China","lat":"24.96577","lng":"113.8091","revenue":"$441.88","notes":"Phasellus sit amet erat. Nulla tempus. Vivamus in felis eu sapien cursus vestibulum."},
{"id":170,"name":"Fivespan","address":"0515 Menomonie Junction","city":"Dumandesa","country":"Indonesia","lat":"-8.5643","lng":"116.1492","revenue":"$492.71","notes":"Etiam vel augue. Vestibulum rutrum rutrum neque. Aenean auctor gravida sem.\n\nPraesent id massa id nisl venenatis lacinia. Aenean sit amet justo. Morbi ut odio.\n\nCras mi pede, malesuada in, imperdiet et, commodo vulputate, justo. In blandit ultrices enim. Lorem ipsum dolor sit amet, consectetuer adipiscing elit."},
{"id":171,"name":"Thoughtblab","address":"5 Mitchell Lane","city":"Huallanca","country":"Peru","lat":"-9.89796","lng":"-76.94089","revenue":"$269.60","notes":"Maecenas tristique, est et tempus semper, est quam pharetra magna, ac consequat metus sapien ut nunc. Vestibulum ante ipsum primis in faucibus orci luctus et ultrices posuere cubilia Curae; Mauris viverra diam vitae quam. Suspendisse potenti.\n\nNullam porttitor lacus at turpis. Donec posuere metus vitae ipsum. Aliquam non mauris."},
{"id":172,"name":"LiveZ","address":"4 Lawn Road","city":"Novyye Gorki","country":"Russia","lat":"56.72535","lng":"41.06014","revenue":"$442.40","notes":"In sagittis dui vel nisl. Duis ac nibh. Fusce lacus purus, aliquet at, feugiat non, pretium quis, lectus.\n\nSuspendisse potenti. In eleifend quam a odio. In hac habitasse platea dictumst."},
{"id":173,"name":"Vinder","address":"297 Pankratz Street","city":"Sherbrooke","country":"Canada","lat":"45.40008","lng":"-71.89908","revenue":"$645.24","notes":"Aenean lectus. Pellentesque eget nunc. Donec quis orci eget orci vehicula condimentum.\n\nCurabitur in libero ut massa volutpat convallis. Morbi odio odio, elementum eu, interdum eu, tincidunt in, leo. Maecenas pulvinar lobortis est.\n\nPhasellus sit amet erat. Nulla tempus. Vivamus in felis eu sapien cursus vestibulum."},
{"id":174,"name":"Zoomzone","address":"279 Fair Oaks Court","city":"Ribeira","country":"Portugal","lat":"40.2567","lng":"-8.3167","revenue":"$243.19","notes":"Donec diam neque, vestibulum eget, vulputate ut, ultrices vel, augue. Vestibulum ante ipsum primis in faucibus orci luctus et ultrices posuere cubilia Curae; Donec pharetra, magna vestibulum aliquet ultrices, erat tortor sollicitudin mi, sit amet lobortis sapien sapien non mi. Integer ac neque.\n\nDuis bibendum. Morbi non quam nec dui luctus rutrum. Nulla tellus."},
{"id":175,"name":"Blogtag","address":"84 Di Loreto Pass","city":"Mogi Mirim","country":"Brazil","lat":"-22.43194","lng":"-46.95778","revenue":"$385.10","notes":"Duis consequat dui nec nisi volutpat eleifend. Donec ut dolor. Morbi vel lectus in quam fringilla rhoncus.\n\nMauris enim leo, rhoncus sed, vestibulum sit amet, cursus id, turpis. Integer aliquet, massa id lobortis convallis, tortor risus dapibus augue, vel accumsan tellus nisi eu orci. Mauris lacinia sapien quis libero.\n\nNullam sit amet turpis elementum ligula vehicula consequat. Morbi a ipsum. Integer a nibh."},
{"id":176,"name":"Twitterbridge","address":"78738 Mifflin Court","city":"Katsina-Ala","country":"Nigeria","lat":"7.16938","lng":"9.28465","revenue":"$275.55","notes":"Praesent id massa id nisl venenatis lacinia. Aenean sit amet justo. Morbi ut odio."},
{"id":177,"name":"Skinte","address":"862 Westridge Circle","city":"Les Clayes-sous-Bois","country":"France","lat":"48.8221","lng":"1.9868","revenue":"$436.89","notes":"Duis aliquam convallis nunc. Proin at turpis a pede posuere nonummy. Integer non velit."},
{"id":178,"name":"Bluejam","address":"1 Banding Avenue","city":"Machachi","country":"Ecuador","lat":"-0.51011","lng":"-78.56712","revenue":"$503.07","notes":"Pellentesque at nulla. Suspendisse potenti. Cras in purus eu magna vulputate luctus."},
{"id":179,"name":"Eayo","address":"61308 Vidon Pass","city":"Paris 02","country":"France","lat":"48.8655","lng":"2.3426","revenue":"$899.99","notes":"Etiam vel augue. Vestibulum rutrum rutrum neque. Aenean auctor gravida sem.\n\nPraesent id massa id nisl venenatis lacinia. Aenean sit amet justo. Morbi ut odio."},
{"id":180,"name":"Gabtype","address":"98613 Roth Center","city":"Ādīs Zemen","country":"Ethiopia","lat":"12.11667","lng":"37.78333","revenue":"$0.89","notes":"Donec diam neque, vestibulum eget, vulputate ut, ultrices vel, augue. Vestibulum ante ipsum primis in faucibus orci luctus et ultrices posuere cubilia Curae; Donec pharetra, magna vestibulum aliquet ultrices, erat tortor sollicitudin mi, sit amet lobortis sapien sapien non mi. Integer ac neque.\n\nDuis bibendum. Morbi non quam nec dui luctus rutrum. Nulla tellus.\n\nIn sagittis dui vel nisl. Duis ac nibh. Fusce lacus purus, aliquet at, feugiat non, pretium quis, lectus."},
{"id":181,"name":"Yozio","address":"6416 Susan Center","city":"Konosha","country":"Russia","lat":"60.9736","lng":"40.257","revenue":"$150.21","notes":"Proin eu mi. Nulla ac enim. In tempor, turpis nec euismod scelerisque, quam turpis adipiscing lorem, vitae mattis nibh ligula nec sem."},
{"id":182,"name":"Browsezoom","address":"7297 Macpherson Avenue","city":"Cihaur","country":"Indonesia","lat":"-6.7824","lng":"105.711","revenue":"$616.00","notes":"Donec diam neque, vestibulum eget, vulputate ut, ultrices vel, augue. Vestibulum ante ipsum primis in faucibus orci luctus et ultrices posuere cubilia Curae; Donec pharetra, magna vestibulum aliquet ultrices, erat tortor sollicitudin mi, sit amet lobortis sapien sapien non mi. Integer ac neque."},
{"id":183,"name":"Quatz","address":"402 Birchwood Crossing","city":"Tuanshan","country":"China","lat":"40.39676","lng":"122.283","revenue":"$428.11","notes":"Quisque id justo sit amet sapien dignissim vestibulum. Vestibulum ante ipsum primis in faucibus orci luctus et ultrices posuere cubilia Curae; Nulla dapibus dolor vel est. Donec odio justo, sollicitudin ut, suscipit a, feugiat et, eros."},
{"id":184,"name":"Kwimbee","address":"9 Rusk Hill","city":"Salamá","country":"Honduras","lat":"15.75","lng":"-85.96667"},
{"id":185,"name":"Talane","address":"825 Almo Street","city":"Orlando","country":"United States","lat":"28.3822","lng":"-81.569","revenue":"$27.85","notes":"Nullam sit amet turpis elementum ligula vehicula consequat. Morbi a ipsum. Integer a nibh."},
{"id":186,"name":"Vimbo","address":"50 Lawn Point","city":"Rurrenabaque","country":"Bolivia","lat":"-14.44125","lng":"-67.52781","revenue":"$469.70","notes":"Phasellus in felis. Donec semper sapien a libero. Nam dui.\n\nProin leo odio, porttitor id, consequat in, consequat ut, nulla. Sed accumsan felis. Ut at dolor quis odio consequat varius.\n\nInteger ac leo. Pellentesque ultrices mattis odio. Donec vitae nisi."},
{"id":187,"name":"Skinte","address":"2 Onsgard Lane","city":"Sabang","country":"Philippines","lat":"14.06333","lng":"120.71111"},
{"id":188,"name":"Quamba","address":"163 Veith Place","city":"Sivers’k","country":"Ukraine","lat":"48.86699","lng":"38.10007","revenue":"$431.40","notes":"Curabitur gravida nisi at nibh. In hac habitasse platea dictumst. Aliquam augue quam, sollicitudin vitae, consectetuer eget, rutrum at, lorem.\n\nInteger tincidunt ante vel ipsum. Praesent blandit lacinia erat. Vestibulum sed magna at nunc commodo placerat."},
{"id":189,"name":"Linkbridge","address":"44 Ramsey Drive","city":"Cumanacoa","country":"Venezuela","lat":"10.25013","lng":"-63.91918","revenue":"$493.22","notes":"Praesent blandit. Nam nulla. Integer pede justo, lacinia eget, tincidunt eget, tempus vel, pede.\n\nMorbi porttitor lorem id ligula. Suspendisse ornare consequat lectus. In est risus, auctor sed, tristique in, tempus sit amet, sem.\n\nFusce consequat. Nulla nisl. Nunc nisl."},
{"id":190,"name":"Jayo","address":"01 Charing Cross Alley","city":"Smyga","country":"Ukraine","lat":"50.2391","lng":"25.76575","revenue":"$370.14","notes":"Maecenas ut massa quis augue luctus tincidunt. Nulla mollis molestie lorem. Quisque ut erat.\n\nCurabitur gravida nisi at nibh. In hac habitasse platea dictumst. Aliquam augue quam, sollicitudin vitae, consectetuer eget, rutrum at, lorem.\n\nInteger tincidunt ante vel ipsum. Praesent blandit lacinia erat. Vestibulum sed magna at nunc commodo placerat."},
{"id":191,"name":"Meeveo","address":"7 Coleman Hill","city":"Bella Vista","country":"Argentina","lat":"-27.03084","lng":"-65.30315","revenue":"$585.35","notes":"Praesent blandit. Nam nulla. Integer pede justo, lacinia eget, tincidunt eget, tempus vel, pede.\n\nMorbi porttitor lorem id ligula. Suspendisse ornare consequat lectus. In est risus, auctor sed, tristique in, tempus sit amet, sem.\n\nFusce consequat. Nulla nisl. Nunc nisl."},
{"id":192,"name":"Browsebug","address":"6 Dottie Alley","city":"Zanjān","country":"Iran","lat":"36.6736","lng":"48.4787","revenue":"$361.24","notes":"Morbi non lectus. Aliquam sit amet diam in magna bibendum imperdiet. Nullam orci pede, venenatis non, sodales sed, tincidunt eu, felis.\n\nFusce posuere felis sed lacus. Morbi sem mauris, laoreet ut, rhoncus aliquet, pulvinar sed, nisl. Nunc rhoncus dui vel sem."},
{"id":193,"name":"Yoveo","address":"85 Lukken Terrace","city":"Łysomice","country":"Poland","lat":"53.08629","lng":"18.62002"},
{"id":194,"name":"Jaxnation","address":"7580 Buell Lane","city":"Balun","country":"Indonesia","lat":"-7.0877","lng":"112.4073","revenue":"$98.47","notes":"Maecenas leo odio, condimentum id, luctus nec, molestie sed, justo. Pellentesque viverra pede ac diam. Cras pellentesque volutpat dui.\n\nMaecenas tristique, est et tempus semper, est quam pharetra magna, ac consequat metus sapien ut nunc. Vestibulum ante ipsum primis in faucibus orci luctus et ultrices posuere cubilia Curae; Mauris viverra diam vitae quam. Suspendisse potenti.\n\nNullam porttitor lacus at turpis. Donec posuere metus vitae ipsum. Aliquam non mauris."},
{"id":195,"name":"Cogidoo","address":"596 Ronald Regan Place","city":"Barwałd Górny","country":"Poland","lat":"49.86211","lng":"19.61746","revenue":"$699.68","notes":"Duis bibendum, felis sed interdum venenatis, turpis enim blandit mi, in porttitor pede justo eu massa. Donec dapibus. Duis at velit eu est congue elementum."},
{"id":196,"name":"Linkbuzz","address":"955 Ohio Avenue","city":"Sacramento","country":"United States","lat":"38.3774","lng":"-121.4444","revenue":"$903.33","notes":"Curabitur in libero ut massa volutpat convallis. Morbi odio odio, elementum eu, interdum eu, tincidunt in, leo. Maecenas pulvinar lobortis est."},
{"id":197,"name":"Dazzlesphere","address":"0 Buhler Point","city":"Xieshui","country":"China","lat":"33.0043","lng":"106.90932","revenue":"$373.19","notes":"Nullam sit amet turpis elementum ligula vehicula consequat. Morbi a ipsum. Integer a nibh.\n\nIn quis justo. Maecenas rhoncus aliquam lacus. Morbi quis tortor id nulla ultrices aliquet.\n\nMaecenas leo odio, condimentum id, luctus nec, molestie sed, justo. Pellentesque viverra pede ac diam. Cras pellentesque volutpat dui."},
{"id":198,"name":"Camido","address":"35990 Veith Place","city":"Cimadang","country":"Indonesia","lat":"-6.4737","lng":"106.0001","revenue":"$445.63","notes":"Suspendisse potenti. In eleifend quam a odio. In hac habitasse platea dictumst."},
{"id":199,"name":"Realcube","address":"83 Trailsway Way","city":"Surovikino","country":"Russia","lat":"48.60734","lng":"42.84621","revenue":"$793.14","notes":"Suspendisse potenti. In eleifend quam a odio. In hac habitasse platea dictumst."},
{"id":200,"name":"Browsedrive","address":"0 Fair Oaks Court","city":"Kubangsari","country":"Indonesia","lat":"-7.5174","lng":"108.0307","revenue":"$629.97","notes":"Vestibulum quam sapien, varius ut, blandit non, interdum in, ante. Vestibulum ante ipsum primis in faucibus orci luctus et ultrices posuere cubilia Curae; Duis faucibus accumsan odio. Curabitur convallis."},
{"id":201,"name":"Chatterbridge","address":"0670 Kedzie Lane","city":"Sundsvall","country":"Sweden","lat":"62.3913","lng":"17.3063","revenue":"$588.13","notes":"Integer ac leo. Pellentesque ultrices mattis odio. Donec vitae nisi.\n\nNam ultrices, libero non mattis pulvinar, nulla pede ullamcorper augue, a suscipit nulla elit ac nulla. Sed vel enim sit amet nunc viverra dapibus. Nulla suscipit ligula in lacus.\n\nCurabitur at ipsum ac tellus semper interdum. Mauris ullamcorper purus sit amet nulla. Quisque arcu libero, rutrum ac, lobortis vel, dapibus at, diam."},
{"id":202,"name":"Yata","address":"43700 Lyons Pass","city":"Famaillá","country":"Argentina","lat":"-27.05413","lng":"-65.40329","revenue":"$886.89","notes":"Proin leo odio, porttitor id, consequat in, consequat ut, nulla. Sed accumsan felis. Ut at dolor quis odio consequat varius.\n\nInteger ac leo. Pellentesque ultrices mattis odio. Donec vitae nisi."},
{"id":203,"name":"Skimia","address":"196 Eastwood Trail","city":"Sabanagrande","country":"Honduras","lat":"13.80778","lng":"-87.25917","revenue":"$959.46","notes":"Maecenas leo odio, condimentum id, luctus nec, molestie sed, justo. Pellentesque viverra pede ac diam. Cras pellentesque volutpat dui.\n\nMaecenas tristique, est et tempus semper, est quam pharetra magna, ac consequat metus sapien ut nunc. Vestibulum ante ipsum primis in faucibus orci luctus et ultrices posuere cubilia Curae; Mauris viverra diam vitae quam. Suspendisse potenti."},
{"id":204,"name":"Realcube","address":"3 Bay Avenue","city":"Horad Smalyavichy","country":"Belarus","lat":"54.0249","lng":"28.0894","revenue":"$666.41","notes":"Sed ante. Vivamus tortor. Duis mattis egestas metus.\n\nAenean fermentum. Donec ut mauris eget massa tempor convallis. Nulla neque libero, convallis eget, eleifend luctus, ultricies eu, nibh."},
{"id":205,"name":"Edgewire","address":"340 Norway Maple Point","city":"Druzhba","country":"Ukraine","lat":"52.04545","lng":"33.94517","revenue":"$474.56","notes":"Curabitur gravida nisi at nibh. In hac habitasse platea dictumst. Aliquam augue quam, sollicitudin vitae, consectetuer eget, rutrum at, lorem.\n\nInteger tincidunt ante vel ipsum. Praesent blandit lacinia erat. Vestibulum sed magna at nunc commodo placerat."},
{"id":206,"name":"Podcat","address":"5790 Melody Alley","city":"Sagay","country":"Philippines","lat":"9.1059","lng":"124.7243","revenue":"$593.23","notes":"Lorem ipsum dolor sit amet, consectetuer adipiscing elit. Proin risus. Praesent lectus."},
{"id":207,"name":"Jayo","address":"02 Farragut Crossing","city":"Liuqu","country":"China","lat":"34.86646","lng":"109.26548","revenue":"$411.68","notes":"In sagittis dui vel nisl. Duis ac nibh. Fusce lacus purus, aliquet at, feugiat non, pretium quis, lectus.\n\nSuspendisse potenti. In eleifend quam a odio. In hac habitasse platea dictumst."},
{"id":208,"name":"Youspan","address":"628 Tomscot Pass","city":"Alvalade","country":"Portugal","lat":"37.9333","lng":"-8.4","revenue":"$330.40","notes":"Cum sociis natoque penatibus et magnis dis parturient montes, nascetur ridiculus mus. Vivamus vestibulum sagittis sapien. Cum sociis natoque penatibus et magnis dis parturient montes, nascetur ridiculus mus.\n\nEtiam vel augue. Vestibulum rutrum rutrum neque. Aenean auctor gravida sem.\n\nPraesent id massa id nisl venenatis lacinia. Aenean sit amet justo. Morbi ut odio."},
{"id":209,"name":"Eare","address":"35393 Anhalt Park","city":"Toshkivka","country":"Ukraine","lat":"48.77914","lng":"38.57903","revenue":"$820.77","notes":"Morbi porttitor lorem id ligula. Suspendisse ornare consequat lectus. In est risus, auctor sed, tristique in, tempus sit amet, sem.\n\nFusce consequat. Nulla nisl. Nunc nisl.\n\nDuis bibendum, felis sed interdum venenatis, turpis enim blandit mi, in porttitor pede justo eu massa. Donec dapibus. Duis at velit eu est congue elementum."},
{"id":210,"name":"Layo","address":"1463 Eastlawn Center","city":"Eybens","country":"France","lat":"45.1487","lng":"5.7493","revenue":"$974.59","notes":"Nullam porttitor lacus at turpis. Donec posuere metus vitae ipsum. Aliquam non mauris."},
{"id":211,"name":"Janyx","address":"66273 Barby Plaza","city":"Poitiers","country":"France","lat":"46.5833","lng":"0.3333","revenue":"$841.11","notes":"Praesent blandit. Nam nulla. Integer pede justo, lacinia eget, tincidunt eget, tempus vel, pede."},
{"id":212,"name":"Trudeo","address":"9390 Autumn Leaf Park","city":"Popielów","country":"Poland","lat":"50.82632","lng":"17.74378","revenue":"$205.60","notes":"Lorem ipsum dolor sit amet, consectetuer adipiscing elit. Proin risus. Praesent lectus.\n\nVestibulum quam sapien, varius ut, blandit non, interdum in, ante. Vestibulum ante ipsum primis in faucibus orci luctus et ultrices posuere cubilia Curae; Duis faucibus accumsan odio. Curabitur convallis.\n\nDuis consequat dui nec nisi volutpat eleifend. Donec ut dolor. Morbi vel lectus in quam fringilla rhoncus."},
{"id":213,"name":"Wordware","address":"13390 Westend Circle","city":"Dzüünbulag","country":"Mongolia","lat":"46.95343","lng":"115.29396","revenue":"$630.42","notes":"In hac habitasse platea dictumst. Etiam faucibus cursus urna. Ut tellus.\n\nNulla ut erat id mauris vulputate elementum. Nullam varius. Nulla facilisi.\n\nCras non velit nec nisi vulputate nonummy. Maecenas tincidunt lacus at velit. Vivamus vel nulla eget eros elementum pellentesque."},
{"id":214,"name":"Rhynoodle","address":"4339 Sunnyside Road","city":"Alençon","country":"France","lat":"48.4333","lng":"0.0833"},
{"id":215,"name":"Viva","address":"6 Eggendart Road","city":"Amieira do Tejo","country":"Portugal","lat":"39.5333","lng":"-7.7833","revenue":"$165.74","notes":"Quisque porta volutpat erat. Quisque erat eros, viverra eget, congue eget, semper rutrum, nulla. Nunc purus.\n\nPhasellus in felis. Donec semper sapien a libero. Nam dui.\n\nProin leo odio, porttitor id, consequat in, consequat ut, nulla. Sed accumsan felis. Ut at dolor quis odio consequat varius."},
{"id":216,"name":"Zava","address":"293 Heath Alley","city":"Gambo","country":"Central African Republic","lat":"4.64816","lng":"22.26331","revenue":"$56.53","notes":"Duis consequat dui nec nisi volutpat eleifend. Donec ut dolor. Morbi vel lectus in quam fringilla rhoncus.\n\nMauris enim leo, rhoncus sed, vestibulum sit amet, cursus id, turpis. Integer aliquet, massa id lobortis convallis, tortor risus dapibus augue, vel accumsan tellus nisi eu orci. Mauris lacinia sapien quis libero.\n\nNullam sit amet turpis elementum ligula vehicula consequat. Morbi a ipsum. Integer a nibh."},
{"id":217,"name":"JumpXS","address":"4426 Straubel Center","city":"Vanadzor","country":"Armenia","lat":"40.80456","lng":"44.4939","revenue":"$341.52","notes":"Morbi porttitor lorem id ligula. Suspendisse ornare consequat lectus. In est risus, auctor sed, tristique in, tempus sit amet, sem."},
{"id":218,"name":"Meejo","address":"0885 Annamark Court","city":"Acherítou","country":"Cyprus","lat":"35.10022","lng":"33.86155","revenue":"$12.39","notes":"Maecenas ut massa quis augue luctus tincidunt. Nulla mollis molestie lorem. Quisque ut erat.\n\nCurabitur gravida nisi at nibh. In hac habitasse platea dictumst. Aliquam augue quam, sollicitudin vitae, consectetuer eget, rutrum at, lorem.\n\nInteger tincidunt ante vel ipsum. Praesent blandit lacinia erat. Vestibulum sed magna at nunc commodo placerat."},
{"id":219,"name":"Trupe","address":"46 Forest Place","city":"Achanizo","country":"Peru","lat":"-15.80611","lng":"-73.96694","revenue":"$90.88","notes":"Proin eu mi. Nulla ac enim. In tempor, turpis nec euismod scelerisque, quam turpis adipiscing lorem, vitae mattis nibh ligula nec sem.\n\nDuis aliquam convallis nunc. Proin at turpis a pede posuere nonummy. Integer non velit.\n\nDonec diam neque, vestibulum eget, vulputate ut, ultrices vel, augue. Vestibulum ante ipsum primis in faucibus orci luctus et ultrices posuere cubilia Curae; Donec pharetra, magna vestibulum aliquet ultrices, erat tortor sollicitudin mi, sit amet lobortis sapien sapien non mi. Integer ac neque."},
{"id":220,"name":"Mynte","address":"390 Bowman Trail","city":"Stulovo","country":"Russia","lat":"58.7225","lng":"50.14389","revenue":"$711.40","notes":"Proin leo odio, porttitor id, consequat in, consequat ut, nulla. Sed accumsan felis. Ut at dolor quis odio consequat varius.\n\nInteger ac leo. Pellentesque ultrices mattis odio. Donec vitae nisi."},
{"id":221,"name":"Dynabox","address":"1 Stone Corner Hill","city":"Grabica","country":"Poland","lat":"51.47989","lng":"19.53137","revenue":"$182.46","notes":"Praesent id massa id nisl venenatis lacinia. Aenean sit amet justo. Morbi ut odio.\n\nCras mi pede, malesuada in, imperdiet et, commodo vulputate, justo. In blandit ultrices enim. Lorem ipsum dolor sit amet, consectetuer adipiscing elit."},
{"id":222,"name":"Pixonyx","address":"332 Ramsey Alley","city":"Léfka","country":"Cyprus","lat":"35.11199","lng":"32.84997","revenue":"$114.21","notes":"In quis justo. Maecenas rhoncus aliquam lacus. Morbi quis tortor id nulla ultrices aliquet.\n\nMaecenas leo odio, condimentum id, luctus nec, molestie sed, justo. Pellentesque viverra pede ac diam. Cras pellentesque volutpat dui.\n\nMaecenas tristique, est et tempus semper, est quam pharetra magna, ac consequat metus sapien ut nunc. Vestibulum ante ipsum primis in faucibus orci luctus et ultrices posuere cubilia Curae; Mauris viverra diam vitae quam. Suspendisse potenti."},
{"id":223,"name":"Zoombeat","address":"7 Kedzie Alley","city":"Espérance Trébuchet","country":"Mauritius","lat":"-20.06972","lng":"57.64194","revenue":"$765.25","notes":"Lorem ipsum dolor sit amet, consectetuer adipiscing elit. Proin risus. Praesent lectus."},
{"id":224,"name":"Zoonoodle","address":"5 Linden Avenue","city":"Santo Estêvão","country":"Brazil","lat":"-12.43028","lng":"-39.25139","revenue":"$384.58","notes":"Duis consequat dui nec nisi volutpat eleifend. Donec ut dolor. Morbi vel lectus in quam fringilla rhoncus.\n\nMauris enim leo, rhoncus sed, vestibulum sit amet, cursus id, turpis. Integer aliquet, massa id lobortis convallis, tortor risus dapibus augue, vel accumsan tellus nisi eu orci. Mauris lacinia sapien quis libero."},
{"id":225,"name":"Dabvine","address":"5797 Reindahl Plaza","city":"Barrosa","country":"Portugal","lat":"38.95","lng":"-8.75","revenue":"$511.33","notes":"Nullam porttitor lacus at turpis. Donec posuere metus vitae ipsum. Aliquam non mauris.\n\nMorbi non lectus. Aliquam sit amet diam in magna bibendum imperdiet. Nullam orci pede, venenatis non, sodales sed, tincidunt eu, felis."},
{"id":226,"name":"Browsezoom","address":"89 Manitowish Drive","city":"Újezd","country":"Czech Republic","lat":"49.76397","lng":"17.1804","revenue":"$184.49","notes":"Sed sagittis. Nam congue, risus semper porta volutpat, quam pede lobortis ligula, sit amet eleifend pede libero quis orci. Nullam molestie nibh in lectus."},
{"id":227,"name":"Skyba","address":"84 Hintze Crossing","city":"Heidelberg","country":"South Africa","lat":"-26.50476","lng":"28.35921"},
{"id":228,"name":"Kanoodle","address":"97 Mandrake Terrace","city":"Maagnas","country":"Philippines","lat":"13.7192","lng":"123.6675"},
{"id":229,"name":"Vimbo","address":"31 Boyd Drive","city":"Waekolong","country":"Indonesia","lat":"-8.7581","lng":"120.7293","revenue":"$148.72","notes":"Morbi non lectus. Aliquam sit amet diam in magna bibendum imperdiet. Nullam orci pede, venenatis non, sodales sed, tincidunt eu, felis."},
{"id":230,"name":"Gevee","address":"8 Springs Junction","city":"Gangnan","country":"China","lat":"31.24025","lng":"119.30074","revenue":"$167.44","notes":"Pellentesque at nulla. Suspendisse potenti. Cras in purus eu magna vulputate luctus.\n\nCum sociis natoque penatibus et magnis dis parturient montes, nascetur ridiculus mus. Vivamus vestibulum sagittis sapien. Cum sociis natoque penatibus et magnis dis parturient montes, nascetur ridiculus mus.\n\nEtiam vel augue. Vestibulum rutrum rutrum neque. Aenean auctor gravida sem."},
{"id":231,"name":"Buzzster","address":"4023 Green Ridge Trail","city":"Zhuravka","country":"Ukraine","lat":"50.48108","lng":"32.5949","revenue":"$30.98","notes":"Sed ante. Vivamus tortor. Duis mattis egestas metus.\n\nAenean fermentum. Donec ut mauris eget massa tempor convallis. Nulla neque libero, convallis eget, eleifend luctus, ultricies eu, nibh."},
{"id":232,"name":"Youbridge","address":"965 Sullivan Parkway","city":"Zwolle","country":"Netherlands","lat":"52.5125","lng":"6.0944","revenue":"$668.00","notes":"Morbi porttitor lorem id ligula. Suspendisse ornare consequat lectus. In est risus, auctor sed, tristique in, tempus sit amet, sem.\n\nFusce consequat. Nulla nisl. Nunc nisl."},
{"id":233,"name":"Voomm","address":"3 Rockefeller Parkway","city":"Přimda","country":"Czech Republic","lat":"49.67488","lng":"12.67366","revenue":"$785.22","notes":"Nulla ut erat id mauris vulputate elementum. Nullam varius. Nulla facilisi."},
{"id":234,"name":"Kwinu","address":"64 Parkside Road","city":"Boconó","country":"Venezuela","lat":"9.24426","lng":"-70.26938","revenue":"$95.49","notes":"Duis consequat dui nec nisi volutpat eleifend. Donec ut dolor. Morbi vel lectus in quam fringilla rhoncus.\n\nMauris enim leo, rhoncus sed, vestibulum sit amet, cursus id, turpis. Integer aliquet, massa id lobortis convallis, tortor risus dapibus augue, vel accumsan tellus nisi eu orci. Mauris lacinia sapien quis libero."},
{"id":235,"name":"Photolist","address":"8310 Maryland Avenue","city":"Kusak","country":"Russia","lat":"53.2238","lng":"78.9337","revenue":"$445.83","notes":"Praesent id massa id nisl venenatis lacinia. Aenean sit amet justo. Morbi ut odio."},
{"id":236,"name":"Bubbletube","address":"36968 Banding Pass","city":"Tugulym","country":"Russia","lat":"57.05906","lng":"64.64251","revenue":"$65.90","notes":"Lorem ipsum dolor sit amet, consectetuer adipiscing elit. Proin risus. Praesent lectus.\n\nVestibulum quam sapien, varius ut, blandit non, interdum in, ante. Vestibulum ante ipsum primis in faucibus orci luctus et ultrices posuere cubilia Curae; Duis faucibus accumsan odio. Curabitur convallis.\n\nDuis consequat dui nec nisi volutpat eleifend. Donec ut dolor. Morbi vel lectus in quam fringilla rhoncus."},
{"id":237,"name":"Aimbo","address":"386 Pond Avenue","city":"Mosteiró","country":"Portugal","lat":"41.2784","lng":"-8.2618","revenue":"$607.18","notes":"Duis aliquam convallis nunc. Proin at turpis a pede posuere nonummy. Integer non velit.\n\nDonec diam neque, vestibulum eget, vulputate ut, ultrices vel, augue. Vestibulum ante ipsum primis in faucibus orci luctus et ultrices posuere cubilia Curae; Donec pharetra, magna vestibulum aliquet ultrices, erat tortor sollicitudin mi, sit amet lobortis sapien sapien non mi. Integer ac neque."},
{"id":238,"name":"Pixonyx","address":"46547 Thierer Center","city":"Dongba","country":"China","lat":"31.29768","lng":"119.05365","revenue":"$785.72","notes":"Nulla ut erat id mauris vulputate elementum. Nullam varius. Nulla facilisi.\n\nCras non velit nec nisi vulputate nonummy. Maecenas tincidunt lacus at velit. Vivamus vel nulla eget eros elementum pellentesque.\n\nQuisque porta volutpat erat. Quisque erat eros, viverra eget, congue eget, semper rutrum, nulla. Nunc purus."},
{"id":239,"name":"Trupe","address":"036 Village Street","city":"Lučko","country":"Croatia","lat":"45.76111","lng":"15.87028","revenue":"$852.88","notes":"Mauris enim leo, rhoncus sed, vestibulum sit amet, cursus id, turpis. Integer aliquet, massa id lobortis convallis, tortor risus dapibus augue, vel accumsan tellus nisi eu orci. Mauris lacinia sapien quis libero."},
{"id":240,"name":"Yadel","address":"2 Sauthoff Court","city":"Pavlovsk","country":"Russia","lat":"59.68333","lng":"30.43472","revenue":"$619.22","notes":"Mauris enim leo, rhoncus sed, vestibulum sit amet, cursus id, turpis. Integer aliquet, massa id lobortis convallis, tortor risus dapibus augue, vel accumsan tellus nisi eu orci. Mauris lacinia sapien quis libero.\n\nNullam sit amet turpis elementum ligula vehicula consequat. Morbi a ipsum. Integer a nibh.\n\nIn quis justo. Maecenas rhoncus aliquam lacus. Morbi quis tortor id nulla ultrices aliquet."},
{"id":241,"name":"Eadel","address":"7443 Division Plaza","city":"Cagmanaba","country":"Philippines","lat":"13.05501","lng":"123.29706","revenue":"$284.14","notes":"Cras non velit nec nisi vulputate nonummy. Maecenas tincidunt lacus at velit. Vivamus vel nulla eget eros elementum pellentesque.\n\nQuisque porta volutpat erat. Quisque erat eros, viverra eget, congue eget, semper rutrum, nulla. Nunc purus."},
{"id":242,"name":"Jaxbean","address":"2 Myrtle Place","city":"Meruge","country":"Portugal","lat":"40.45","lng":"-7.85","revenue":"$831.18","notes":"Sed ante. Vivamus tortor. Duis mattis egestas metus."},
{"id":243,"name":"Zooxo","address":"15 Shopko Lane","city":"Haninge","country":"Sweden","lat":"59.1677","lng":"18.1448","revenue":"$900.03","notes":"Fusce posuere felis sed lacus. Morbi sem mauris, laoreet ut, rhoncus aliquet, pulvinar sed, nisl. Nunc rhoncus dui vel sem."},
{"id":244,"name":"Vitz","address":"6 Hudson Junction","city":"Gierłoż","country":"Poland","lat":"54.08134","lng":"21.49551","revenue":"$786.16","notes":"In sagittis dui vel nisl. Duis ac nibh. Fusce lacus purus, aliquet at, feugiat non, pretium quis, lectus.\n\nSuspendisse potenti. In eleifend quam a odio. In hac habitasse platea dictumst.\n\nMaecenas ut massa quis augue luctus tincidunt. Nulla mollis molestie lorem. Quisque ut erat."},
{"id":245,"name":"Kwilith","address":"614 Mitchell Circle","city":"Katabu","country":"Indonesia","lat":"-4.9333","lng":"122.5167","revenue":"$711.66","notes":"Phasellus sit amet erat. Nulla tempus. Vivamus in felis eu sapien cursus vestibulum.\n\nProin eu mi. Nulla ac enim. In tempor, turpis nec euismod scelerisque, quam turpis adipiscing lorem, vitae mattis nibh ligula nec sem."},
{"id":246,"name":"Jaxworks","address":"251 Elmside Park","city":"Verbilki","country":"Russia","lat":"56.53333","lng":"37.6","revenue":"$382.48","notes":"Fusce consequat. Nulla nisl. Nunc nisl.\n\nDuis bibendum, felis sed interdum venenatis, turpis enim blandit mi, in porttitor pede justo eu massa. Donec dapibus. Duis at velit eu est congue elementum."},
{"id":247,"name":"Quaxo","address":"73 Manley Terrace","city":"Néa Tríglia","country":"Greece","lat":"40.30575","lng":"23.2066","revenue":"$831.16","notes":"Suspendisse potenti. In eleifend quam a odio. In hac habitasse platea dictumst."},
{"id":248,"name":"Cogilith","address":"40 Huxley Avenue","city":"Belyy Yar","country":"Russia","lat":"53.60389","lng":"91.39028","revenue":"$948.38","notes":"Praesent blandit. Nam nulla. Integer pede justo, lacinia eget, tincidunt eget, tempus vel, pede."},
{"id":249,"name":"Quatz","address":"0 Fuller Center","city":"Vojnić","country":"Croatia","lat":"45.32361","lng":"15.69861","revenue":"$601.25","notes":"Donec diam neque, vestibulum eget, vulputate ut, ultrices vel, augue. Vestibulum ante ipsum primis in faucibus orci luctus et ultrices posuere cubilia Curae; Donec pharetra, magna vestibulum aliquet ultrices, erat tortor sollicitudin mi, sit amet lobortis sapien sapien non mi. Integer ac neque.\n\nDuis bibendum. Morbi non quam nec dui luctus rutrum. Nulla tellus.\n\nIn sagittis dui vel nisl. Duis ac nibh. Fusce lacus purus, aliquet at, feugiat non, pretium quis, lectus."},
{"id":250,"name":"Twimm","address":"2537 Bowman Hill","city":"Krajanbonjor","country":"Indonesia","lat":"-6.7839","lng":"111.6394"},
{"id":251,"name":"Topicblab","address":"88 Browning Junction","city":"Kizel","country":"Russia","lat":"59.04709","lng":"57.64767","revenue":"$694.27","notes":"Nulla ut erat id mauris vulputate elementum. Nullam varius. Nulla facilisi.\n\nCras non velit nec nisi vulputate nonummy. Maecenas tincidunt lacus at velit. Vivamus vel nulla eget eros elementum pellentesque."},
{"id":252,"name":"Brainbox","address":"6669 Westport Place","city":"Wakduwa’ Barat","country":"Indonesia","lat":"-6.9394","lng":"113.5273","revenue":"$275.02","notes":"Sed sagittis. Nam congue, risus semper porta volutpat, quam pede lobortis ligula, sit amet eleifend pede libero quis orci. Nullam molestie nibh in lectus."},
{"id":253,"name":"Dazzlesphere","address":"1 La Follette Plaza","city":"Antabamba","country":"Peru","lat":"-14.36056","lng":"-72.87556","revenue":"$356.31","notes":"In quis justo. Maecenas rhoncus aliquam lacus. Morbi quis tortor id nulla ultrices aliquet."},
{"id":254,"name":"Dabshots","address":"6 Northwestern Street","city":"Yaguaraparo","country":"Venezuela","lat":"10.56916","lng":"-62.82693","revenue":"$638.32","notes":"Vestibulum ac est lacinia nisi venenatis tristique. Fusce congue, diam id ornare imperdiet, sapien urna pretium nisl, ut volutpat sapien arcu sed augue. Aliquam erat volutpat.\n\nIn congue. Etiam justo. Etiam pretium iaculis justo.\n\nIn hac habitasse platea dictumst. Etiam faucibus cursus urna. Ut tellus."},
{"id":255,"name":"Feedfish","address":"56840 Straubel Street","city":"Ciomas","country":"Indonesia","lat":"-7.1527","lng":"108.2879","revenue":"$106.50","notes":"Lorem ipsum dolor sit amet, consectetuer adipiscing elit. Proin risus. Praesent lectus.\n\nVestibulum quam sapien, varius ut, blandit non, interdum in, ante. Vestibulum ante ipsum primis in faucibus orci luctus et ultrices posuere cubilia Curae; Duis faucibus accumsan odio. Curabitur convallis."},
{"id":256,"name":"Skimia","address":"4 Lyons Crossing","city":"Chicago","country":"United States","lat":"41.9699","lng":"-87.7603","revenue":"$443.51","notes":"Sed ante. Vivamus tortor. Duis mattis egestas metus."},
{"id":257,"name":"Janyx","address":"3543 Old Shore Pass","city":"Pirapo","country":"Paraguay","lat":"-26.85","lng":"-55.53333","revenue":"$12.98","notes":"Fusce posuere felis sed lacus. Morbi sem mauris, laoreet ut, rhoncus aliquet, pulvinar sed, nisl. Nunc rhoncus dui vel sem.\n\nSed sagittis. Nam congue, risus semper porta volutpat, quam pede lobortis ligula, sit amet eleifend pede libero quis orci. Nullam molestie nibh in lectus.\n\nPellentesque at nulla. Suspendisse potenti. Cras in purus eu magna vulputate luctus."},
{"id":258,"name":"Ailane","address":"0308 Golf Course Way","city":"Tojal","country":"Portugal","lat":"41.2958","lng":"-8.4167","revenue":"$376.87","notes":"Mauris enim leo, rhoncus sed, vestibulum sit amet, cursus id, turpis. Integer aliquet, massa id lobortis convallis, tortor risus dapibus augue, vel accumsan tellus nisi eu orci. Mauris lacinia sapien quis libero.\n\nNullam sit amet turpis elementum ligula vehicula consequat. Morbi a ipsum. Integer a nibh.\n\nIn quis justo. Maecenas rhoncus aliquam lacus. Morbi quis tortor id nulla ultrices aliquet."},
{"id":259,"name":"Wikido","address":"24151 Ilene Road","city":"Forshaga","country":"Sweden","lat":"59.5254","lng":"13.4813"},